{
"type": "FeatureCollection",
"name": "Flood_trace_all",
"crs": { "type": "name", "properties": { "name": "urn:ogc:def:crs:OGC:1.3:CRS84" } },
"features": [
{ "type": "Feature", "properties": { "Join_Count": 1, "No": 1.0, "Code": "PMY.01", "ID": "PMY.01", "Name": "UBND xã Phong Mỹ", "X": 16.52327, "Y": 107.314217, "T10_2020": 1.37, "T10_2022": "0.59", "T11_2023": 0.0, "Note": "Vết tường ngoài Nhà làm việc bên phải từ nền", "VL2020": 2020.0, "VL2022": 2022.0, "VL2023": null, "Delta1": 0.78, "Delta2": 0.0, "Ward": "Phường Phong Điền", "Address": "Xã Phong Mỹ" }, "geometry": { "type": "Point", "coordinates": [ 107.314217, 16.52327, 0.0 ] } },
{ "type": "Feature", "properties": { "Join_Count": 1, "No": 2.0, "Code": "PMY.02", "ID": "PMY.02", "Name": "Trạm Y Tế xã Phong Mỹ", "X": 16.524351, "Y": 107.317355, "T10_2020": 1.26, "T10_2022": "0.80", "T11_2023": 0.0, "Note": "Vết tại cổng trụ chính bên trái", "VL2020": 2020.0, "VL2022": 2022.0, "VL2023": null, "Delta1": 0.46, "Delta2": 0.0, "Ward": "Phường Phong Điền", "Address": "Xã Phong Mỹ" }, "geometry": { "type": "Point", "coordinates": [ 107.317355, 16.524351, 0.0 ] } },
{ "type": "Feature", "properties": { "Join_Count": 1, "No": 3.0, "Code": "PMY.03", "ID": "PMY.03", "Name": "HTX Hòa Mỹ", "X": 16.518389, "Y": 107.311661, "T10_2020": 0.92, "T10_2022": "0.63", "T11_2023": 0.0, "Note": "Vết tại Cổng trụ chính bên phải", "VL2020": 2020.0, "VL2022": 2022.0, "VL2023": null, "Delta1": 0.29, "Delta2": 0.0, "Ward": "Phường Phong Điền", "Address": "Xã Phong Mỹ" }, "geometry": { "type": "Point", "coordinates": [ 107.311661, 16.518389, 0.0 ] } },
{ "type": "Feature", "properties": { "Join_Count": 1, "No": 4.0, "Code": "PXU.01", "ID": "PXU.01", "Name": "Trường MN Phong xuân CS 1", "X": 16.506442, "Y": 107.363151, "T10_2020": 0.8, "T10_2022": "không ngập", "T11_2023": 0.0, "Note": "Vết tại trụ cổng", "VL2020": 2020.0, "VL2022": 2022.0, "VL2023": null, "Delta1": 0.0, "Delta2": 0.0, "Ward": "Phường Phong Điền", "Address": "Xã Phong Xuân" }, "geometry": { "type": "Point", "coordinates": [ 107.363151, 16.506442, 0.0 ] } },
{ "type": "Feature", "properties": { "Join_Count": 1, "No": 5.0, "Code": "PXU.02", "ID": "PXU.02", "Name": "Trường MN Phong xuân CS 2", "X": 16.502134, "Y": 107.371106, "T10_2020": 0.2, "T10_2022": "không ngập", "T11_2023": 0.0, "Note": "Đường ngập 10-20cm", "VL2020": 2020.0, "VL2022": 2022.0, "VL2023": null, "Delta1": 0.0, "Delta2": 0.0, "Ward": "Phường Phong Điền", "Address": "Xã Phong Xuân" }, "geometry": { "type": "Point", "coordinates": [ 107.371106, 16.502134, 0.0 ] } },
{ "type": "Feature", "properties": { "Join_Count": 1, "No": 6.0, "Code": "PSO.01", "ID": "PSO.01", "Name": "UBND xã Phong Sơn", "X": 16.49306, "Y": 107.40697, "T10_2020": 0.5, "T10_2022": "không ngập", "T11_2023": 0.0, "Note": "Vết tại trụ UBND xã", "VL2020": 2020.0, "VL2022": 2022.0, "VL2023": null, "Delta1": 0.0, "Delta2": 0.0, "Ward": "Phường Phong Thái", "Address": "Xã Phong Sơn" }, "geometry": { "type": "Point", "coordinates": [ 107.40697, 16.49306, 0.0 ] } },
{ "type": "Feature", "properties": { "Join_Count": 1, "No": 7.0, "Code": "PSO.02", "ID": "PSO.02", "Name": "Trường THCS Phong Sơn", "X": 16.493522, "Y": 107.407084, "T10_2020": 1.0, "T10_2022": "không ngập", "T11_2023": 0.0, "Note": "Vết tại trụ cổng", "VL2020": 2020.0, "VL2022": 2022.0, "VL2023": null, "Delta1": 0.0, "Delta2": 0.0, "Ward": "Phường Phong Thái", "Address": "Xã Phong Sơn" }, "geometry": { "type": "Point", "coordinates": [ 107.407084, 16.493522, 0.0 ] } },
{ "type": "Feature", "properties": { "Join_Count": 1, "No": 8.0, "Code": "PSO.03", "ID": "PSO.03", "Name": "HTX NN Tứ Chánh", "X": 16.508912, "Y": 107.405938, "T10_2020": 3.0, "T10_2022": "-", "T11_2023": 0.0, "Note": "Ngập sâu >2,5m không đánh vết được", "VL2020": 2020.0, "VL2022": 2022.0, "VL2023": null, "Delta1": 0.0, "Delta2": 0.0, "Ward": "Phường Phong Thái", "Address": "Xã Phong Sơn" }, "geometry": { "type": "Point", "coordinates": [ 107.405938, 16.508912, 0.0 ] } },
{ "type": "Feature", "properties": { "Join_Count": 1, "No": 9.0, "Code": "PSO.03", "ID": "PSO.03", "Name": "Đình làng Tứ Chánh", "X": 16.50946, "Y": 107.406441, "T10_2020": 2.2, "T10_2022": "1.10", "T11_2023": 0.0, "Note": "Đường ngập trên 2.5m", "VL2020": 2020.0, "VL2022": 2022.0, "VL2023": null, "Delta1": 1.1, "Delta2": 0.0, "Ward": "Phường Phong Thái", "Address": "Xã Phong Sơn" }, "geometry": { "type": "Point", "coordinates": [ 107.406441, 16.50946, 0.0 ] } },
{ "type": "Feature", "properties": { "Join_Count": 1, "No": 10.0, "Code": "PSO.04", "ID": "PSO.04", "Name": "Trường Tiểu học Tây Bắc Sơn, thôn Tứ Chánh", "X": 16.51126, "Y": 107.403488, "T10_2020": 2.6, "T10_2022": "1.22", "T11_2023": 0.0, "Note": "Vết tại tường phòng học (mép ngoài bên phải); ngập từ nền phòng học chính tầng 1 lên. Khu vực xung quanh ngập sâu trên 3m", "VL2020": 2020.0, "VL2022": 2022.0, "VL2023": null, "Delta1": 1.38, "Delta2": 0.0, "Ward": "Phường Phong Thái", "Address": "Xã Phong Sơn" }, "geometry": { "type": "Point", "coordinates": [ 107.403488, 16.51126, 0.0 ] } },
{ "type": "Feature", "properties": { "Join_Count": 1, "No": 11.0, "Code": "PSO.05", "ID": "PSO.05", "Name": "Trườn MN Phong Sơn I", "X": 16.49225, "Y": 107.40618, "T10_2020": 0.4, "T10_2022": "không ngập", "T11_2023": 0.0, "Note": "Vết tại trụ cổng bên phải", "VL2020": 2020.0, "VL2022": 2022.0, "VL2023": null, "Delta1": 0.4, "Delta2": 0.0, "Ward": "Phường Phong Thái", "Address": "Xã Phong Sơn" }, "geometry": { "type": "Point", "coordinates": [ 107.40618, 16.49225, 0.0 ] } },
{ "type": "Feature", "properties": { "Join_Count": 1, "No": 12.0, "Code": "VIE1.07", "ID": "VIE1.07", "Name": "Tháp Sơn Quả", "X": 16.494224, "Y": 107.410381, "T10_2020": 8.81, "T10_2022": "7.30", "T11_2023": 0.0, "Note": "Vết trên tháp", "VL2020": 2020.0, "VL2022": 2022.0, "VL2023": null, "Delta1": 1.51, "Delta2": 0.0, "Ward": "Phường Phong Thái", "Address": "Xã Phong Sơn" }, "geometry": { "type": "Point", "coordinates": [ 107.410381, 16.494224, 0.0 ] } },
{ "type": "Feature", "properties": { "Join_Count": 1, "No": 13.0, "Code": "PSO.06", "ID": "PSO.06", "Name": "Nhà VH thôn Cổ bi 3", "X": 16.51126, "Y": 107.403488, "T10_2020": 0.86, "T10_2022": "Vừa đến sàn", "T11_2023": 0.0, "Note": "Vết tại tường nhà mép ngoài (bên trái)", "VL2020": 2020.0, "VL2022": 2022.0, "VL2023": null, "Delta1": 0.0, "Delta2": 0.0, "Ward": "Phường Phong Thái", "Address": "Xã Phong Sơn" }, "geometry": { "type": "Point", "coordinates": [ 107.403488, 16.51126, 0.0 ] } },
{ "type": "Feature", "properties": { "Join_Count": 1, "No": 14.0, "Code": "PSO.07", "ID": "PSO.07", "Name": "Trường MN Phong Sơn II", "X": 16.495924, "Y": 107.42847, "T10_2020": 0.0, "T10_2022": "không ngập", "T11_2023": 0.0, "Note": "không ngập", "VL2020": 2020.0, "VL2022": 2022.0, "VL2023": null, "Delta1": 0.0, "Delta2": 0.0, "Ward": "Phường Phong Thái", "Address": "Xã Phong Sơn" }, "geometry": { "type": "Point", "coordinates": [ 107.42847, 16.495924, 0.0 ] } },
{ "type": "Feature", "properties": { "Join_Count": 1, "No": 15.0, "Code": "HĐ.01", "ID": "HĐ.01", "Name": "Tháp Cổ bi", "X": 16.508689, "Y": 107.434689, "T10_2020": 6.85, "T10_2022": "6.62", "T11_2023": 0.0, "Note": "Vết trên tháp", "VL2020": 2020.0, "VL2022": 2022.0, "VL2023": null, "Delta1": 0.23, "Delta2": 0.0, "Ward": "Phường Phong Thái", "Address": "Xã Phong Sơn" }, "geometry": { "type": "Point", "coordinates": [ 107.434689, 16.508689, 0.0 ] } },
{ "type": "Feature", "properties": { "Join_Count": 1, "No": 16.0, "Code": "PAN.01", "ID": "PAN.01", "Name": "Cổng Xóm Nhất Tây, thôn Phò Ninh", "X": 16.52571, "Y": 107.439039, "T10_2020": 1.7, "T10_2022": "1.45", "T11_2023": 0.0, "Note": "Vết trên cổng trụ", "VL2020": 2020.0, "VL2022": 2022.0, "VL2023": null, "Delta1": 0.25, "Delta2": 0.0, "Ward": "Phường Phong Thái", "Address": "Xã Phong An" }, "geometry": { "type": "Point", "coordinates": [ 107.439039, 16.52571, 0.0 ] } },
{ "type": "Feature", "properties": { "Join_Count": 1, "No": 17.0, "Code": "PAN.02", "ID": "PAN.02", "Name": "Cổng xóm Nhì Tây, thôn Phò Ninh", "X": 16.528165, "Y": 107.438899, "T10_2020": 1.67, "T10_2022": null, "T11_2023": 0.0, "Note": "Vết trên cổng trụ (2022 cổng bị phá làm đường)", "VL2020": 2020.0, "VL2022": 2022.0, "VL2023": null, "Delta1": 1.67, "Delta2": 0.0, "Ward": "Phường Phong Thái", "Address": "Xã Phong An" }, "geometry": { "type": "Point", "coordinates": [ 107.438899, 16.528165, 0.0 ] } },
{ "type": "Feature", "properties": { "Join_Count": 1, "No": 18.0, "Code": "PAN.02", "ID": "PAN.02", "Name": "Trường Tiểu học Phò Ninh", "X": 16.5285, "Y": 107.43784, "T10_2020": 0.0, "T10_2022": "1.09", "T11_2023": 0.0, "Note": "Vết năm 2022 đo từ nền sân trường", "VL2020": 0.0, "VL2022": 2022.0, "VL2023": null, "Delta1": -1.09, "Delta2": 0.0, "Ward": "Phường Phong Thái", "Address": "Xã Phong An" }, "geometry": { "type": "Point", "coordinates": [ 107.43784, 16.5285, 0.0 ] } },
{ "type": "Feature", "properties": { "Join_Count": 1, "No": 19.0, "Code": "VIE1.08", "ID": "VIE1.08", "Name": "Tháp Phò Ninh", "X": 16.532827, "Y": 107.441372, "T10_2020": 6.8, "T10_2022": "6.50", "T11_2023": 0.0, "Note": "Vết trên tháp", "VL2020": 2020.0, "VL2022": 2022.0, "VL2023": null, "Delta1": 0.3, "Delta2": 0.0, "Ward": "Phường Phong Thái", "Address": "Xã Phong An" }, "geometry": { "type": "Point", "coordinates": [ 107.441372, 16.532827, 0.0 ] } },
{ "type": "Feature", "properties": { "Join_Count": 1, "No": 20.0, "Code": "PAN.03", "ID": "PAN.03", "Name": "Chợ Phù", "X": 16.534947, "Y": 107.4443, "T10_2020": 1.01, "T10_2022": "0.68", "T11_2023": 0.0, "Note": "Vêt trên tường", "VL2020": 2020.0, "VL2022": 2022.0, "VL2023": null, "Delta1": 0.33, "Delta2": 0.0, "Ward": "Phường Phong Thái", "Address": "Xã Phong An" }, "geometry": { "type": "Point", "coordinates": [ 107.4443, 16.534947, 0.0 ] } },
{ "type": "Feature", "properties": { "Join_Count": 1, "No": 21.0, "Code": "PAN.04", "ID": "PAN.04", "Name": "Cổng làng Thượng An", "X": 16.538853, "Y": 107.44794, "T10_2020": 0.7, "T10_2022": "0.49", "T11_2023": 0.0, "Note": "Vết trên cổng trụ", "VL2020": 2020.0, "VL2022": 2022.0, "VL2023": null, "Delta1": 0.21, "Delta2": 0.0, "Ward": "Phường Phong Thái", "Address": "Xã Phong An" }, "geometry": { "type": "Point", "coordinates": [ 107.44794, 16.538853, 0.0 ] } },
{ "type": "Feature", "properties": { "Join_Count": 1, "No": 22.0, "Code": "PAN.05", "ID": "PAN.05", "Name": "Trung Tâm học tập cộng đồng xã", "X": 16.540698, "Y": 107.449858, "T10_2020": 0.56, "T10_2022": "0.34", "T11_2023": 0.0, "Note": "Vêt trên tường", "VL2020": 2020.0, "VL2022": 2022.0, "VL2023": null, "Delta1": 0.22, "Delta2": 0.0, "Ward": "Phường Phong Thái", "Address": "Xã Phong An" }, "geometry": { "type": "Point", "coordinates": [ 107.449858, 16.540698, 0.0 ] } },
{ "type": "Feature", "properties": { "Join_Count": 1, "No": 23.0, "Code": "PAN.06", "ID": "PAN.06", "Name": "UBND xã Phong An", "X": 16.542553, "Y": 107.451461, "T10_2020": 0.7, "T10_2022": "0.50", "T11_2023": 0.0, "Note": "Vết tường ngoài bên trái", "VL2020": 2020.0, "VL2022": 2022.0, "VL2023": null, "Delta1": 0.2, "Delta2": 0.0, "Ward": "Phường Phong Thái", "Address": "Xã Phong An" }, "geometry": { "type": "Point", "coordinates": [ 107.451461, 16.542553, 0.0 ] } },
{ "type": "Feature", "properties": { "Join_Count": 1, "No": 24.0, "Code": "PAN.07", "ID": "PAN.07", "Name": "Trạm Y Tế xã Phong An", "X": 16.543603, "Y": 107.452704, "T10_2020": 0.72, "T10_2022": "0.50", "T11_2023": 0.0, "Note": "Vết tường ngoài bên phải", "VL2020": 2020.0, "VL2022": 2022.0, "VL2023": null, "Delta1": 0.22, "Delta2": 0.0, "Ward": "Phường Phong Thái", "Address": "Xã Phong An" }, "geometry": { "type": "Point", "coordinates": [ 107.452704, 16.543603, 0.0 ] } },
{ "type": "Feature", "properties": { "Join_Count": 1, "No": 25.0, "Code": "PAN.08", "ID": "PAN.08", "Name": "Trường Tiểu học Điền An", "X": 16.548787, "Y": 107.449741, "T10_2020": 1.0, "T10_2022": "0.52", "T11_2023": 0.0, "Note": "Vết trên tường rào ngoài trường bên trái", "VL2020": 2020.0, "VL2022": 2022.0, "VL2023": null, "Delta1": 0.48, "Delta2": 0.0, "Ward": "Phường Phong Thái", "Address": "Xã Phong An" }, "geometry": { "type": "Point", "coordinates": [ 107.449741, 16.548787, 0.0 ] } },
{ "type": "Feature", "properties": { "Join_Count": 1, "No": 26.0, "Code": "HĐ.03", "ID": "HĐ.03", "Name": "Tháp Bồ Điền", "X": 16.54429, "Y": 107.45434, "T10_2020": 6.0, "T10_2022": "5.90", "T11_2023": 0.0, "Note": "Vết trên tháp", "VL2020": 2020.0, "VL2022": 2022.0, "VL2023": null, "Delta1": 0.1, "Delta2": 0.0, "Ward": "Phường Phong Thái", "Address": "Xã Phong An" }, "geometry": { "type": "Point", "coordinates": [ 107.45434, 16.54429, 0.0 ] } },
{ "type": "Feature", "properties": { "Join_Count": 1, "No": 27.0, "Code": "PHI.01", "ID": "PHI.01", "Name": "Cổng làng An Lỗ 1", "X": 16.546179, "Y": 107.455928, "T10_2020": 1.0, "T10_2022": "0.71", "T11_2023": 0.0, "Note": "Trụ cổng", "VL2020": 2020.0, "VL2022": 2022.0, "VL2023": null, "Delta1": 0.29, "Delta2": 0.0, "Ward": "Phường Phong Thái", "Address": "Xã Phong Hiền" }, "geometry": { "type": "Point", "coordinates": [ 107.455928, 16.546179, 0.0 ] } },
{ "type": "Feature", "properties": { "Join_Count": 1, "No": 28.0, "Code": "PHI.02", "ID": "PHI.02", "Name": "Cổng làng An Lỗ 2", "X": 16.546881, "Y": 107.457579, "T10_2020": 1.08, "T10_2022": "0.75", "T11_2023": 0.0, "Note": "Trụ cổng", "VL2020": 2020.0, "VL2022": 2022.0, "VL2023": null, "Delta1": 0.33, "Delta2": 0.0, "Ward": "Phường Phong Thái", "Address": "Xã Phong Hiền" }, "geometry": { "type": "Point", "coordinates": [ 107.457579, 16.546881, 0.0 ] } },
{ "type": "Feature", "properties": { "Join_Count": 1, "No": 29.0, "Code": "PHI.03", "ID": "PHI.03", "Name": "Cồng làng Gia Viên", "X": 16.55913, "Y": 107.455728, "T10_2020": 0.35, "T10_2022": null, "T11_2023": 0.0, "Note": "Chân trụ cổng làng bên trái", "VL2020": 2020.0, "VL2022": 2022.0, "VL2023": null, "Delta1": 0.35, "Delta2": 0.0, "Ward": "Phường Phong Thái", "Address": "Xã Phong Hiền" }, "geometry": { "type": "Point", "coordinates": [ 107.455728, 16.55913, 0.0 ] } },
{ "type": "Feature", "properties": { "Join_Count": 1, "No": 30.0, "Code": "PHI.03", "ID": "PHI.03", "Name": "Nhà sau cổng làng Gia Viên (cũ)", "X": 16.55913, "Y": 107.455728, "T10_2020": 0.0, "T10_2022": "0.25", "T11_2023": 0.0, "Note": "Chân Nền ngoài nhà phía sau cổng làng Gia Viên cũ", "VL2020": 0.0, "VL2022": 2022.0, "VL2023": null, "Delta1": 0.0, "Delta2": 0.0, "Ward": "Phường Phong Thái", "Address": "Xã Phong Hiền" }, "geometry": { "type": "Point", "coordinates": [ 107.455728, 16.55913, 0.0 ] } },
{ "type": "Feature", "properties": { "Join_Count": 1, "No": 31.0, "Code": "PHI.04", "ID": "PHI.04", "Name": "Trường TH Đông Hiền, Thôn Sơn Tùng", "X": 16.565777, "Y": 107.461394, "T10_2020": 1.15, "T10_2022": "0.40", "T11_2023": 0.0, "Note": "Vết trụ tường rào bên trái, đo từ thành Bồn hoa lên", "VL2020": 2020.0, "VL2022": 2022.0, "VL2023": null, "Delta1": 0.75, "Delta2": 0.0, "Ward": "Phường Phong Thái", "Address": "Xã Phong Hiền" }, "geometry": { "type": "Point", "coordinates": [ 107.461394, 16.565777, 0.0 ] } },
{ "type": "Feature", "properties": { "Join_Count": 1, "No": 32.0, "Code": "VIE1.09", "ID": "VIE1.09", "Name": "Tháp Phong Hiền", "X": 16.566364, "Y": 107.461224, "T10_2020": 0.0, "T10_2022": "-", "T11_2023": 0.0, "Note": "Vết trên tháp (đang di dời)", "VL2020": 2020.0, "VL2022": 2022.0, "VL2023": null, "Delta1": 0.0, "Delta2": 0.0, "Ward": "Phường Phong Thái", "Address": "Xã Phong Hiền" }, "geometry": { "type": "Point", "coordinates": [ 107.461224, 16.566364, 0.0 ] } },
{ "type": "Feature", "properties": { "Join_Count": 1, "No": 33.0, "Code": "TTR.01", "ID": "TTR.01", "Name": "Trường THPT Phong Điền", "X": 16.577791, "Y": 107.374669, "T10_2020": 0.0, "T10_2022": "không ngập", "T11_2023": 0.0, "Note": "không ngập", "VL2020": 2020.0, "VL2022": 2022.0, "VL2023": null, "Delta1": 0.0, "Delta2": 0.0, "Ward": "Phường Phong Điền", "Address": "Thị trấn P.Điền" }, "geometry": { "type": "Point", "coordinates": [ 107.374669, 16.577791, 0.0 ] } },
{ "type": "Feature", "properties": { "Join_Count": 1, "No": 34.0, "Code": "TTR.02", "ID": "TTR.02", "Name": "Trường MN Hướng Dương", "X": 16.584699, "Y": 107.365484, "T10_2020": 0.0, "T10_2022": "không ngập", "T11_2023": 0.0, "Note": "Chưa ngập vào trường", "VL2020": 2020.0, "VL2022": 2022.0, "VL2023": null, "Delta1": 0.0, "Delta2": 0.0, "Ward": "Phường Phong Điền", "Address": "Thị trấn P.Điền" }, "geometry": { "type": "Point", "coordinates": [ 107.365484, 16.584699, 0.0 ] } },
{ "type": "Feature", "properties": { "Join_Count": 1, "No": 35.0, "Code": "TTR.03", "ID": "TTR.03", "Name": "Ngô Văn Dĩnh, thôn Vĩnh Nguyên", "X": 16.580746, "Y": 107.358941, "T10_2020": 1.85, "T10_2022": "1.02", "T11_2023": 0.0, "Note": "Vết trên tường nhà, đo từ nền nhà chính", "VL2020": 2020.0, "VL2022": 2022.0, "VL2023": null, "Delta1": 0.83, "Delta2": 0.0, "Ward": "Phường Phong Điền", "Address": "Thị trấn P.Điền" }, "geometry": { "type": "Point", "coordinates": [ 107.358941, 16.580746, 0.0 ] } },
{ "type": "Feature", "properties": { "Join_Count": 1, "No": 36.0, "Code": "PTU.01", "ID": "PTU.01", "Name": "Nguyễn Úy, thôn Trạch Hữu", "X": 16.582128, "Y": 107.351711, "T10_2020": 3.1, "T10_2022": "1.40", "T11_2023": 0.0, "Note": "Vết tường ngoài nhà, đo từ nền trong nhà chính", "VL2020": 2020.0, "VL2022": 2022.0, "VL2023": null, "Delta1": 1.7, "Delta2": 0.0, "Ward": "Phường Phong Điền", "Address": "Xã Phong Thu" }, "geometry": { "type": "Point", "coordinates": [ 107.351711, 16.5821285, 0.0 ] } },
{ "type": "Feature", "properties": { "Join_Count": 1, "No": 37.0, "Code": "PTU.02", "ID": "PTU.02", "Name": "Nhà Nguyễn Văn Thắng, thôn Trạch Hữu", "X": 16.580712, "Y": 107.351536, "T10_2020": 1.38, "T10_2022": "0.52", "T11_2023": 0.0, "Note": "Từ sân nền (trong nhà ngập 50cm)", "VL2020": 2020.0, "VL2022": 2022.0, "VL2023": null, "Delta1": 0.86, "Delta2": 0.0, "Ward": "Phường Phong Điền", "Address": "Xã Phong Thu" }, "geometry": { "type": "Point", "coordinates": [ 107.351536, 16.580712, 0.0 ] } },
{ "type": "Feature", "properties": { "Join_Count": 1, "No": 38.0, "Code": "PTU.03", "ID": "PTU.03", "Name": "Cổng làng thôn Khúc Lý- Ba Lạp", "X": 16.595433, "Y": 107.357815, "T10_2020": 2.5, "T10_2022": "1.43", "T11_2023": 0.0, "Note": "Vết trụ cổng bên trái", "VL2020": 2020.0, "VL2022": 2022.0, "VL2023": null, "Delta1": 1.07, "Delta2": 0.0, "Ward": "Phường Phong Điền", "Address": "Xã Phong Thu" }, "geometry": { "type": "Point", "coordinates": [ 107.357815, 16.595433, 0.0 ] } },
{ "type": "Feature", "properties": { "Join_Count": 1, "No": 39.0, "Code": "PTU.04", "ID": "PTU.04", "Name": "Nhà Nguyễn Phu, Khúc Lý- Ba Lạp", "X": 16.596574, "Y": 107.360104, "T10_2020": 2.44, "T10_2022": "2.90", "T11_2023": 0.0, "Note": "Vêt trên mép tường nhà, bên trái", "VL2020": 2020.0, "VL2022": 2022.0, "VL2023": null, "Delta1": -0.46, "Delta2": 0.0, "Ward": "Phường Phong Điền", "Address": "Xã Phong Thu" }, "geometry": { "type": "Point", "coordinates": [ 107.360104, 16.596574, 0.0 ] } },
{ "type": "Feature", "properties": { "Join_Count": 1, "No": 40.0, "Code": "PTU.05", "ID": "PTU.05", "Name": "Nhà Lê Văn Hóa, thôn Đông Lái", "X": 16.597022, "Y": 107.349554, "T10_2020": 2.03, "T10_2022": "0.85", "T11_2023": 0.0, "Note": "Vết trụ tường nhà bên phải, đo từ nền nhà chính", "VL2020": 2020.0, "VL2022": 2022.0, "VL2023": null, "Delta1": 1.18, "Delta2": 0.0, "Ward": "Phường Phong Điền", "Address": "Xã Phong Thu" }, "geometry": { "type": "Point", "coordinates": [ 107.349554, 16.597022, 0.0 ] } },
{ "type": "Feature", "properties": { "Join_Count": 1, "No": 41.0, "Code": "PHO.01", "ID": "PHO.01", "Name": "NVH thôn Trung Cọ Mè", "X": 16.612994, "Y": 107.325726, "T10_2020": 2.72, "T10_2022": null, "T11_2023": 0.0, "Note": "Vết trên trụ", "VL2020": 2020.0, "VL2022": 2022.0, "VL2023": null, "Delta1": 2.72, "Delta2": 0.0, "Ward": "Xã Phong Dinh", "Address": "Xã Phong Hòa" }, "geometry": { "type": "Point", "coordinates": [ 107.325726, 16.612994, 0.0 ] } },
{ "type": "Feature", "properties": { "Join_Count": 1, "No": 42.0, "Code": "PHO.01", "ID": "PHO.01", "Name": "Nhà Lê Đan Chuẩn", "X": 16.612895, "Y": 107.325759, "T10_2020": 1.8, "T10_2022": "0.80", "T11_2023": 0.0, "Note": "Vết lưu ở tường nhà sau, đo từ nền nhà chính", "VL2020": 2020.0, "VL2022": 2022.0, "VL2023": null, "Delta1": 1.0, "Delta2": 0.0, "Ward": "Xã Phong Dinh", "Address": "Xã Phong Hòa" }, "geometry": { "type": "Point", "coordinates": [ 107.325759, 16.612895, 0.0 ] } },
{ "type": "Feature", "properties": { "Join_Count": 1, "No": 43.0, "Code": "PHO.02", "ID": "PHO.02", "Name": "Cổng làng thôn Trung Cò Mè", "X": 16.638595, "Y": 107.316423, "T10_2020": 1.03, "T10_2022": "0.37", "T11_2023": 0.0, "Note": "Vết tại cổng trụ", "VL2020": 2020.0, "VL2022": 2022.0, "VL2023": null, "Delta1": 0.66, "Delta2": 0.0, "Ward": "Xã Phong Dinh", "Address": "Xã Phong Hòa" }, "geometry": { "type": "Point", "coordinates": [ 107.316423, 16.638595, 0.0 ] } },
{ "type": "Feature", "properties": { "Join_Count": 1, "No": 44.0, "Code": "PHO.03", "ID": "PHO.03", "Name": "HTX Mỹ Xuyên", "X": 16.640581, "Y": 107.316508, "T10_2020": 0.95, "T10_2022": "0.06", "T11_2023": 0.0, "Note": "Từ nền ngoài nhà, Mới vào chớm nền", "VL2020": 2020.0, "VL2022": 2022.0, "VL2023": null, "Delta1": 0.89, "Delta2": 0.0, "Ward": "Xã Phong Dinh", "Address": "Xã Phong Hòa" }, "geometry": { "type": "Point", "coordinates": [ 107.316508, 16.640581, 0.0 ] } },
{ "type": "Feature", "properties": { "Join_Count": 1, "No": 45.0, "Code": "PHO.04", "ID": "PHO.04", "Name": "Cổng làng thôn Mỹ Xuyên", "X": 16.644388, "Y": 107.312521, "T10_2020": 1.55, "T10_2022": "0.88", "T11_2023": 0.0, "Note": "Vết tại cổng trụ", "VL2020": 2020.0, "VL2022": 2022.0, "VL2023": null, "Delta1": 0.67, "Delta2": 0.0, "Ward": "Xã Phong Dinh", "Address": "Xã Phong Hòa" }, "geometry": { "type": "Point", "coordinates": [ 107.312521, 16.644388, 0.0 ] } },
{ "type": "Feature", "properties": { "Join_Count": 1, "No": 46.0, "Code": "PHO.05", "ID": "PHO.05", "Name": "Trường tiểu học Trạch Phổ", "X": 16.656844, "Y": 107.325097, "T10_2020": 1.2, "T10_2022": "0.70", "T11_2023": 0.0, "Note": "Trụ phòng học chính, đo từ nền sân lên", "VL2020": 2020.0, "VL2022": 2022.0, "VL2023": null, "Delta1": 0.5, "Delta2": 0.0, "Ward": "Xã Phong Dinh", "Address": "Xã Phong Hòa" }, "geometry": { "type": "Point", "coordinates": [ 107.325097, 16.656844, 0.0 ] } },
{ "type": "Feature", "properties": { "Join_Count": 1, "No": 47.0, "Code": "PHO.06", "ID": "PHO.06", "Name": "Nhà Lê Mậu Hòa, thôn Trạch Phổ", "X": 16.656626, "Y": 107.324904, "T10_2020": 0.74, "T10_2022": "0.20", "T11_2023": 0.0, "Note": "Cách nền nhà chính", "VL2020": 2020.0, "VL2022": 2022.0, "VL2023": null, "Delta1": 0.54, "Delta2": 0.0, "Ward": "Xã Phong Dinh", "Address": "Xã Phong Hòa" }, "geometry": { "type": "Point", "coordinates": [ 107.3249037, 16.6566263, 0.0 ] } },
{ "type": "Feature", "properties": { "Join_Count": 1, "No": 48.0, "Code": "PHO.07", "ID": "PHO.07", "Name": "HTX Trạch Phổ", "X": 16.655668, "Y": 107.325409, "T10_2020": 1.2, "T10_2022": "0.70", "T11_2023": 0.0, "Note": "Trường bên ngoài nhà làm việc, đo từ sân lên", "VL2020": 2020.0, "VL2022": 2022.0, "VL2023": null, "Delta1": 0.5, "Delta2": 0.0, "Ward": "Xã Phong Dinh", "Address": "Xã Phong Hòa" }, "geometry": { "type": "Point", "coordinates": [ 107.325409, 16.655668, 0.0 ] } },
{ "type": "Feature", "properties": { "Join_Count": 1, "No": 49.0, "Code": "PHO.08", "ID": "PHO.08", "Name": "HTX Ưu Điềm", "X": 16.664786, "Y": 107.327653, "T10_2020": 1.0, "T10_2022": "0.50", "T11_2023": 0.0, "Note": "Vết trên tường, từ nền nhà chính", "VL2020": 2020.0, "VL2022": 2022.0, "VL2023": null, "Delta1": 0.5, "Delta2": 0.0, "Ward": "Xã Phong Dinh", "Address": "Xã Phong Hòa" }, "geometry": { "type": "Point", "coordinates": [ 107.327653, 16.664786, 0.0 ] } },
{ "type": "Feature", "properties": { "Join_Count": 1, "No": 50.0, "Code": "PBI.01", "ID": "PBI.01", "Name": "HTX Vân Trình", "X": 16.696972, "Y": 107.352865, "T10_2020": 0.9, "T10_2022": "0.00", "T11_2023": 0.0, "Note": "Vết trụ nhà (từ nền), 2022 mới chớm nền hiên ngoài nhà làm việc", "VL2020": 2020.0, "VL2022": 2022.0, "VL2023": null, "Delta1": 0.9, "Delta2": 0.0, "Ward": "Xã Phong Dinh", "Address": "Xã Phong Bình" }, "geometry": { "type": "Point", "coordinates": [ 107.352865, 16.696972, 0.0 ] } },
{ "type": "Feature", "properties": { "Join_Count": 1, "No": 51.0, "Code": "VIE1.06", "ID": "VIE1.06", "Name": "Tháp báo lũ Vân Trình", "X": 16.532795, "Y": 107.441344, "T10_2020": 3.4, "T10_2022": "2.50", "T11_2023": 0.0, "Note": "Vết trên tháp", "VL2020": 2020.0, "VL2022": 2022.0, "VL2023": null, "Delta1": 0.9, "Delta2": 0.0, "Ward": "Phường Phong Thái", "Address": "Xã Phong Bình" }, "geometry": { "type": "Point", "coordinates": [ 107.441344, 16.532795, 0.0 ] } },
{ "type": "Feature", "properties": { "Join_Count": 1, "No": 52.0, "Code": "PBI.02", "ID": "PBI.02", "Name": "Nhà Trần Văn Phước, thôn Hòa Viện", "X": 16.672874, "Y": 107.331688, "T10_2020": 0.93, "T10_2022": "0.10", "T11_2023": 0.0, "Note": "Vết tường ngoài nhà bên phải (từ nền),", "VL2020": 2020.0, "VL2022": 2022.0, "VL2023": null, "Delta1": 0.83, "Delta2": 0.0, "Ward": "Xã Phong Dinh", "Address": "Xã Phong Bình" }, "geometry": { "type": "Point", "coordinates": [ 107.331688, 16.672874, 0.0 ] } },
{ "type": "Feature", "properties": { "Join_Count": 1, "No": 53.0, "Code": "PBI.03", "ID": "PBI.03", "Name": "Trường Mầm Non Phong Bình 1", "X": 16.67251, "Y": 107.33252, "T10_2020": 0.0, "T10_2022": "1.00", "T11_2023": 0.0, "Note": "Vết tại tường  phòng làm việc giáo viên bên phải", "VL2020": 0.0, "VL2022": 2022.0, "VL2023": null, "Delta1": 0.0, "Delta2": 0.0, "Ward": "Xã Phong Dinh", "Address": "Xã Phong Bình" }, "geometry": { "type": "Point", "coordinates": [ 107.33252, 16.67251, 0.0 ] } },
{ "type": "Feature", "properties": { "Join_Count": 1, "No": 54.0, "Code": "PBI.04", "ID": "PBI.04", "Name": "Phan Công Hứa, thôn Vĩnh An", "X": 16.66819, "Y": 107.332801, "T10_2020": 0.6, "T10_2022": "0.00", "T11_2023": 0.0, "Note": "Vêt tại cổng trụ", "VL2020": 2020.0, "VL2022": 2022.0, "VL2023": null, "Delta1": 0.6, "Delta2": 0.0, "Ward": "Xã Phong Dinh", "Address": "Xã Phong Bình" }, "geometry": { "type": "Point", "coordinates": [ 107.332801, 16.66819, 0.0 ] } },
{ "type": "Feature", "properties": { "Join_Count": 1, "No": 55.0, "Code": "PBI.05", "ID": "PBI.05", "Name": "UBND xã Phong Bình", "X": 16.66573, "Y": 107.3424, "T10_2020": 0.0, "T10_2022": "0.48", "T11_2023": 0.0, "Note": "Vết tại tường rào, phía bên phải, đo từ nền lên, thấp hơn vết 2017 khoang 5cm", "VL2020": 0.0, "VL2022": 2022.0, "VL2023": null, "Delta1": 0.0, "Delta2": 0.0, "Ward": "Xã Phong Dinh", "Address": "Xã Phong Bình" }, "geometry": { "type": "Point", "coordinates": [ 107.3424, 16.66573, 0.0 ] } },
{ "type": "Feature", "properties": { "Join_Count": 1, "No": 56.0, "Code": "PBI.06", "ID": "PBI.06", "Name": "Phạm thị An, thôn Tả Hữu Tự", "X": 16.665706, "Y": 107.343117, "T10_2020": 1.38, "T10_2022": "0.64", "T11_2023": 0.0, "Note": "Vết tường nhà dưới bên phải, đo từ nền nhà dưới lên", "VL2020": 2020.0, "VL2022": 2022.0, "VL2023": null, "Delta1": 0.74, "Delta2": 0.0, "Ward": "Xã Phong Dinh", "Address": "Xã Phong Bình" }, "geometry": { "type": "Point", "coordinates": [ 107.343117, 16.665706, 0.0 ] } },
{ "type": "Feature", "properties": { "Join_Count": 1, "No": 57.0, "Code": "PBI.07", "ID": "PBI.07", "Name": "Trường Mầm Non Phong Bình", "X": 16.664787, "Y": 107.346367, "T10_2020": 1.16, "T10_2022": "0.57", "T11_2023": 0.0, "Note": "Vêt trụ trong trường bên trái", "VL2020": 2020.0, "VL2022": 2022.0, "VL2023": null, "Delta1": 0.59, "Delta2": 0.0, "Ward": "Xã Phong Dinh", "Address": "Xã Phong Bình" }, "geometry": { "type": "Point", "coordinates": [ 107.346367, 16.664787, 0.0 ] } },
{ "type": "Feature", "properties": { "Join_Count": 1, "No": 58.0, "Code": "PHC.01", "ID": "PHC.01", "Name": "Tiểu học MaNe", "X": 16.691162, "Y": 107.370455, "T10_2020": 1.4, "T10_2022": "0.78", "T11_2023": 0.0, "Note": "Vết tường ngoài phòng học", "VL2020": 2020.0, "VL2022": 2022.0, "VL2023": null, "Delta1": 0.622, "Delta2": 0.0, "Ward": "Xã Phong Dinh", "Address": "Xã Phong Chương" }, "geometry": { "type": "Point", "coordinates": [ 107.370455, 16.691162, 0.0 ] } },
{ "type": "Feature", "properties": { "Join_Count": 1, "No": 59.0, "Code": "PHC.02", "ID": "PHC.02", "Name": "Trường tiểu học Phong Chương", "X": 16.673609, "Y": 107.366226, "T10_2020": 1.7, "T10_2022": "0.76", "T11_2023": 0.0, "Note": "Vết tại trụ tường bên trái", "VL2020": 2020.0, "VL2022": 2022.0, "VL2023": null, "Delta1": 0.94, "Delta2": 0.0, "Ward": "Xã Phong Dinh", "Address": "Xã Phong Chương" }, "geometry": { "type": "Point", "coordinates": [ 107.366226, 16.673609, 0.0 ] } },
{ "type": "Feature", "properties": { "Join_Count": 1, "No": 60.0, "Code": "PHC.03", "ID": "PHC.03", "Name": "Trường MN Phong Chương 2", "X": 16.664381, "Y": 107.374504, "T10_2020": 1.28, "T10_2022": "0.44", "T11_2023": 0.0, "Note": "Vết trụ trong trường (cổng sau)", "VL2020": 2020.0, "VL2022": 2022.0, "VL2023": null, "Delta1": 0.84, "Delta2": 0.0, "Ward": "Xã Phong Dinh", "Address": "Xã Phong Chương" }, "geometry": { "type": "Point", "coordinates": [ 107.374504, 16.664381, 0.0 ] } },
{ "type": "Feature", "properties": { "Join_Count": 1, "No": 61.0, "Code": "PHC.04", "ID": "PHC.04", "Name": "UBND xã Phong Chương", "X": 16.660605, "Y": 107.383121, "T10_2020": 0.7, "T10_2022": "0.35", "T11_2023": 0.0, "Note": "Vết tại trụ nhà chính UBND xã, bên trái", "VL2020": 2020.0, "VL2022": 2022.0, "VL2023": null, "Delta1": 0.35, "Delta2": 0.0, "Ward": "Xã Phong Dinh", "Address": "Xã Phong Chương" }, "geometry": { "type": "Point", "coordinates": [ 107.383121, 16.660605, 0.0 ] } },
{ "type": "Feature", "properties": { "Join_Count": 1, "No": 62.0, "Code": "PHC.05", "ID": "PHC.05", "Name": "Nhà Văn hóa thôn Trung Thạnh", "X": 16.660216, "Y": 107.384157, "T10_2020": 0.66, "T10_2022": "0.25", "T11_2023": 0.0, "Note": "Vết tại tường rào bên phải", "VL2020": 2020.0, "VL2022": 2022.0, "VL2023": null, "Delta1": 0.41, "Delta2": 0.0, "Ward": "Xã Phong Dinh", "Address": "Xã Phong Chương" }, "geometry": { "type": "Point", "coordinates": [ 107.384157, 16.660216, 0.0 ] } },
{ "type": "Feature", "properties": { "Join_Count": 1, "No": 63.0, "Code": "PHC.06", "ID": "PHC.06", "Name": "THCS Nguyễn Tri Phương", "X": 16.658757, "Y": 107.388696, "T10_2020": 1.24, "T10_2022": "0.60", "T11_2023": 0.0, "Note": "Vết tại trụ cổng chính bên trái", "VL2020": 2020.0, "VL2022": 2022.0, "VL2023": null, "Delta1": 0.64, "Delta2": 0.0, "Ward": "Xã Phong Dinh", "Address": "Xã Phong Chương" }, "geometry": { "type": "Point", "coordinates": [ 107.388696, 16.658757, 0.0 ] } },
{ "type": "Feature", "properties": { "Join_Count": 1, "No": 64.0, "Code": "PHC.07", "ID": "PHC.07", "Name": "Trường MN Phong Chương 1", "X": 16.653746, "Y": 107.400989, "T10_2020": 1.21, "T10_2022": "0.36", "T11_2023": 0.0, "Note": "Vết tường rào bên trái", "VL2020": 2020.0, "VL2022": 2022.0, "VL2023": null, "Delta1": 0.85, "Delta2": 0.0, "Ward": "Xã Phong Dinh", "Address": "Xã Phong Chương" }, "geometry": { "type": "Point", "coordinates": [ 107.400989, 16.653746, 0.0 ] } },
{ "type": "Feature", "properties": { "Join_Count": 1, "No": 65.0, "Code": "PHC.08", "ID": "PHC.08", "Name": "Chợ Phong Chương", "X": 16.654244, "Y": 107.402098, "T10_2020": 0.58, "T10_2022": "0.10", "T11_2023": 0.0, "Note": "Vết trụ trong chợ bên phải", "VL2020": 2020.0, "VL2022": 2022.0, "VL2023": null, "Delta1": 0.48, "Delta2": 0.0, "Ward": "Xã Phong Dinh", "Address": "Xã Phong Chương" }, "geometry": { "type": "Point", "coordinates": [ 107.402098, 16.654244, 0.0 ] } },
{ "type": "Feature", "properties": { "Join_Count": 1, "No": 66.0, "Code": "PHC.09", "ID": "PHC.09", "Name": "Nhà Lê Thị Chiểu", "X": 16.659338, "Y": 107.403346, "T10_2020": 0.8, "T10_2022": "0.30", "T11_2023": 0.0, "Note": "Vết tại tường nhà bên phải", "VL2020": 2020.0, "VL2022": 2022.0, "VL2023": null, "Delta1": 0.5, "Delta2": 0.0, "Ward": "Xã Phong Dinh", "Address": "Xã Phong Chương" }, "geometry": { "type": "Point", "coordinates": [ 107.403346, 16.659338, 0.0 ] } },
{ "type": "Feature", "properties": { "Join_Count": 1, "No": 67.0, "Code": "ĐHU.01", "ID": "ĐHU.01", "Name": "Nhà Nguyễn Bảo, xóm Chợ", "X": 16.7065, "Y": 107.360323, "T10_2020": 1.35, "T10_2022": "0.58", "T11_2023": 0.0, "Note": "Vết tại trụ trong nhà", "VL2020": 2020.0, "VL2022": 2022.0, "VL2023": null, "Delta1": 0.77, "Delta2": 0.0, "Ward": "Phường Phong Phú", "Address": "Xã Điền Hương" }, "geometry": { "type": "Point", "coordinates": [ 107.360323, 16.7065, 0.0 ] } },
{ "type": "Feature", "properties": { "Join_Count": 1, "No": 68.0, "Code": "ĐHU.02", "ID": "ĐHU.02", "Name": "UBND xã Điền Hương", "X": 16.705265, "Y": 107.36376, "T10_2020": 1.45, "T10_2022": "0.60", "T11_2023": 0.0, "Note": "Vết Tường Nhà làm việc chính bên trái", "VL2020": 2020.0, "VL2022": 2022.0, "VL2023": null, "Delta1": 0.85, "Delta2": 0.0, "Ward": "Phường Phong Phú", "Address": "Xã Điền Hương" }, "geometry": { "type": "Point", "coordinates": [ 107.36376, 16.705265, 0.0 ] } },
{ "type": "Feature", "properties": { "Join_Count": 1, "No": 69.0, "Code": "ĐHU.03", "ID": "ĐHU.03", "Name": "Trường MN Điền Hương", "X": 16.705263, "Y": 107.368954, "T10_2020": 1.34, "T10_2022": "0.40", "T11_2023": 0.0, "Note": "Vết tại trụ tường rào bên phải", "VL2020": 2020.0, "VL2022": 2022.0, "VL2023": null, "Delta1": 0.94, "Delta2": 0.0, "Ward": "Phường Phong Phú", "Address": "Xã Điền Hương" }, "geometry": { "type": "Point", "coordinates": [ 107.368954, 16.705263, 0.0 ] } },
{ "type": "Feature", "properties": { "Join_Count": 1, "No": 70.0, "Code": "ĐHU.04", "ID": "ĐHU.04", "Name": "Nhà Lê Long, thôn Thanh Hương Đông", "X": 16.704676, "Y": 107.370263, "T10_2020": 1.35, "T10_2022": "0.56", "T11_2023": 0.0, "Note": "Vết Tường sau nhà, tính từ nền nhà chính", "VL2020": 2020.0, "VL2022": 2022.0, "VL2023": null, "Delta1": 0.79, "Delta2": 0.0, "Ward": "Phường Phong Phú", "Address": "Xã Điền Hương" }, "geometry": { "type": "Point", "coordinates": [ 107.370263, 16.704676, 0.0 ] } },
{ "type": "Feature", "properties": { "Join_Count": 1, "No": 71.0, "Code": "ĐMO.01", "ID": "ĐMO.01", "Name": "HTX Vĩnh Xương", "X": 16.69969, "Y": 107.384303, "T10_2020": 1.15, "T10_2022": "0.24", "T11_2023": 0.0, "Note": "Vết tại trụ nhà làm việc cũ", "VL2020": 2020.0, "VL2022": 2022.0, "VL2023": null, "Delta1": 0.91, "Delta2": 0.0, "Ward": "Phường Phong Phú", "Address": "Xã Điền Môn" }, "geometry": { "type": "Point", "coordinates": [ 107.384303, 16.69969, 0.0 ] } },
{ "type": "Feature", "properties": { "Join_Count": 1, "No": 72.0, "Code": "ĐMO.02", "ID": "ĐMO.02", "Name": "THCS Nguyễn Lộ Trạch, xã Điền Môn", "X": 16.69367, "Y": 107.389803, "T10_2020": 1.21, "T10_2022": "0.40", "T11_2023": 0.0, "Note": "Vết tại trụ cổng chính bên phải", "VL2020": 2020.0, "VL2022": 2022.0, "VL2023": null, "Delta1": 0.81, "Delta2": 0.0, "Ward": "Phường Phong Phú", "Address": "Xã Điền Môn" }, "geometry": { "type": "Point", "coordinates": [ 107.389803, 16.69367, 0.0 ] } },
{ "type": "Feature", "properties": { "Join_Count": 1, "No": 73.0, "Code": "ĐMO.03", "ID": "ĐMO.03", "Name": "UBND xã Điền Môn", "X": 16.693859, "Y": 107.390612, "T10_2020": 1.2, "T10_2022": "0.40", "T11_2023": 0.0, "Note": "Vết Tường Nhà làm việc chính bên trái", "VL2020": 2020.0, "VL2022": 2022.0, "VL2023": null, "Delta1": 0.8, "Delta2": 0.0, "Ward": "Phường Phong Phú", "Address": "Xã Điền Môn" }, "geometry": { "type": "Point", "coordinates": [ 107.390612, 16.693859, 0.0 ] } },
{ "type": "Feature", "properties": { "Join_Count": 1, "No": 74.0, "Code": "ĐMO.04", "ID": "ĐMO.04", "Name": "HTX Kế Môn", "X": 16.689585, "Y": 107.40358, "T10_2020": 1.0, "T10_2022": "0.25", "T11_2023": 0.0, "Note": "Vết tại trụ nhà làm việc đầu tiên bên trái", "VL2020": 2020.0, "VL2022": 2022.0, "VL2023": null, "Delta1": 0.75, "Delta2": 0.0, "Ward": "Phường Phong Phú", "Address": "Xã Điền Môn" }, "geometry": { "type": "Point", "coordinates": [ 107.40358, 16.689585, 0.0 ] } },
{ "type": "Feature", "properties": { "Join_Count": 1, "No": 75.0, "Code": "ĐMO.05", "ID": "ĐMO.05", "Name": "Xóm Chùa, Kế Môn, Điền Môn", "X": 16.688642, "Y": 107.405443, "T10_2020": 1.14, "T10_2022": "0.43", "T11_2023": 0.0, "Note": "Vết tại trụ tường rào bên phải", "VL2020": 2020.0, "VL2022": 2022.0, "VL2023": null, "Delta1": 0.71, "Delta2": 0.0, "Ward": "Phường Phong Phú", "Address": "Xã Điền Môn" }, "geometry": { "type": "Point", "coordinates": [ 107.405443, 16.688642, 0.0 ] } },
{ "type": "Feature", "properties": { "Join_Count": 1, "No": 76.0, "Code": "ĐMO.06", "ID": "ĐMO.06", "Name": "Chợ Điền Môn", "X": 16.685282, "Y": 107.409585, "T10_2020": 0.96, "T10_2022": "0.00", "T11_2023": 0.0, "Note": "Vết tại tường ngoài (bên phải)", "VL2020": 2020.0, "VL2022": 2022.0, "VL2023": null, "Delta1": 0.96, "Delta2": 0.0, "Ward": "Phường Phong Phú", "Address": "Xã Điền Môn" }, "geometry": { "type": "Point", "coordinates": [ 107.409585, 16.685282, 0.0 ] } },
{ "type": "Feature", "properties": { "Join_Count": 1, "No": 77.0, "Code": "DLO.01", "ID": "DLO.01", "Name": "Nhà Ha Van Lanh", "X": 16.671283, "Y": 107.40884, "T10_2020": 1.55, "T10_2022": "0.46", "T11_2023": 0.0, "Note": "Vết tại trụ nhà chính mép bên phải", "VL2020": 2020.0, "VL2022": 2022.0, "VL2023": null, "Delta1": 1.09, "Delta2": 0.0, "Ward": "Phường Phong Phú", "Address": "Xã Điền Lộc" }, "geometry": { "type": "Point", "coordinates": [ 107.40884, 16.671283, 0.0 ] } },
{ "type": "Feature", "properties": { "Join_Count": 1, "No": 78.0, "Code": "DLO.02", "ID": "DLO.02", "Name": "Nhà Đỗ Khoái, thôn Giáp Nam", "X": 16.677305, "Y": 107.408344, "T10_2020": 1.6, "T10_2022": "0.65", "T11_2023": 0.0, "Note": "Vết tại trụ cổng bên trái", "VL2020": 2020.0, "VL2022": 2022.0, "VL2023": null, "Delta1": 0.95, "Delta2": 0.0, "Ward": "Phường Phong Phú", "Address": "Xã Điền Lộc" }, "geometry": { "type": "Point", "coordinates": [ 107.408344, 16.677305, 0.0 ] } },
{ "type": "Feature", "properties": { "Join_Count": 1, "No": 79.0, "Code": "DLO.02a", "ID": "DLO.02a", "Name": "Trụ điện trên Đê Đông Ô Lâu", "X": 16.677181, "Y": 107.407932, "T10_2020": 1.8, "T10_2022": "-", "T11_2023": 0.0, "Note": "Vết trên trụ điện vị trí KM6+100 đê Đông Ô Lâu", "VL2020": 2020.0, "VL2022": 2022.0, "VL2023": null, "Delta1": 0.0, "Delta2": 0.0, "Ward": "Phường Phong Phú", "Address": "Xã Điền Lộc" }, "geometry": { "type": "Point", "coordinates": [ 107.407932, 16.677181, 0.0 ] } },
{ "type": "Feature", "properties": { "Join_Count": 1, "No": 80.0, "Code": "DLO.03", "ID": "DLO.03", "Name": "UBND xã Điền Lộc", "X": 16.6815, "Y": 107.4147, "T10_2020": 1.22, "T10_2022": "0.40", "T11_2023": 0.0, "Note": "Vết tại tường sảnh nhà văn hóa cộng đồng sát UB", "VL2020": 2020.0, "VL2022": 2022.0, "VL2023": null, "Delta1": 0.82, "Delta2": 0.0, "Ward": "Phường Phong Phú", "Address": "Xã Điền Lộc" }, "geometry": { "type": "Point", "coordinates": [ 107.4147, 16.6815, 0.0 ] } },
{ "type": "Feature", "properties": { "Join_Count": 1, "No": 81.0, "Code": "DLO.04", "ID": "DLO.04", "Name": "Trường THCS Điền Lộc", "X": 16.680884, "Y": 107.417417, "T10_2020": 1.38, "T10_2022": "0.68", "T11_2023": 0.0, "Note": "Vết trên mép tường rào phía phải", "VL2020": 2020.0, "VL2022": 2022.0, "VL2023": null, "Delta1": 0.7, "Delta2": 0.0, "Ward": "Phường Phong Phú", "Address": "Xã Điền Lộc" }, "geometry": { "type": "Point", "coordinates": [ 107.417417, 16.680884, 0.0 ] } },
{ "type": "Feature", "properties": { "Join_Count": 1, "No": 82.0, "Code": "DLO.05", "ID": "DLO.05", "Name": "Văn Công Dự", "X": 16.669681, "Y": 107.440388, "T10_2020": 1.49, "T10_2022": "0.45", "T11_2023": 0.0, "Note": "Vết trên mép tường ngoài nhà  phía phải", "VL2020": 2020.0, "VL2022": 2022.0, "VL2023": null, "Delta1": 1.04, "Delta2": 0.0, "Ward": "Phường Phong Phú", "Address": "Xã Điền Lộc" }, "geometry": { "type": "Point", "coordinates": [ 107.440388, 16.669681, 0.0 ] } },
{ "type": "Feature", "properties": { "Join_Count": 1, "No": 83.0, "Code": "ĐHO.01", "ID": "ĐHO.01", "Name": "Trường Tiểu học Điền Hòa Điền Hòa", "X": 16.665816, "Y": 107.448345, "T10_2020": 0.8, "T10_2022": "0.13", "T11_2023": 0.0, "Note": "Vết tại trụ phụ bên trái", "VL2020": 2020.0, "VL2022": 2022.0, "VL2023": null, "Delta1": 0.67, "Delta2": 0.0, "Ward": "Phường Phong Phú", "Address": "Xã Điền Hòa" }, "geometry": { "type": "Point", "coordinates": [ 107.448345, 16.665816, 0.0 ] } },
{ "type": "Feature", "properties": { "Join_Count": 1, "No": 84.0, "Code": "ĐHO.02", "ID": "ĐHO.02", "Name": "Nhà Hồ Thất Thơ, thôn 3", "X": 16.66694, "Y": 107.43839, "T10_2020": 1.1, "T10_2022": "0.35", "T11_2023": 0.0, "Note": "Vết tường mép ngoài nhà chính", "VL2020": 2020.0, "VL2022": 2022.0, "VL2023": null, "Delta1": 0.75, "Delta2": 0.0, "Ward": "Phường Phong Phú", "Address": "Xã Điền Hòa" }, "geometry": { "type": "Point", "coordinates": [ 107.43839, 16.66694, 0.0 ] } },
{ "type": "Feature", "properties": { "Join_Count": 1, "No": 85.0, "Code": "ĐHO.03", "ID": "ĐHO.03", "Name": "Nhà Văn hóa cộng đồng thôn 9,", "X": 16.662905, "Y": 107.445676, "T10_2020": 0.9, "T10_2022": "0.65", "T11_2023": 0.0, "Note": "Vết Tường Nhà làm việc bên trái", "VL2020": 2020.0, "VL2022": 2022.0, "VL2023": null, "Delta1": 0.25, "Delta2": 0.0, "Ward": "Phường Phong Phú", "Address": "Xã Điền Hòa" }, "geometry": { "type": "Point", "coordinates": [ 107.445676, 16.662905, 0.0 ] } },
{ "type": "Feature", "properties": { "Join_Count": 1, "No": 86.0, "Code": "ĐHO.04", "ID": "ĐHO.04", "Name": "Nhà Lê Chí Nam, khu vực chợ Biện,", "X": 16.66049, "Y": 107.447929, "T10_2020": 1.2, "T10_2022": "0.65", "T11_2023": 0.0, "Note": "Vết tại tường nhà bên trái", "VL2020": 2020.0, "VL2022": 2022.0, "VL2023": null, "Delta1": 0.55, "Delta2": 0.0, "Ward": "Phường Phong Phú", "Address": "Xã Điền Hòa" }, "geometry": { "type": "Point", "coordinates": [ 107.447929, 16.66049, 0.0 ] } },
{ "type": "Feature", "properties": { "Join_Count": 1, "No": 87.0, "Code": "ĐHO.05", "ID": "ĐHO.05", "Name": "Nhà VĂn hóa thôn 8", "X": 16.661972, "Y": 107.45521, "T10_2020": 0.8, "T10_2022": "0.00", "T11_2023": 0.0, "Note": "Vết tại trụ cổng chính bên trái", "VL2020": 2020.0, "VL2022": 2022.0, "VL2023": null, "Delta1": 0.8, "Delta2": 0.0, "Ward": "Phường Phong Phú", "Address": "Xã Điền Hòa" }, "geometry": { "type": "Point", "coordinates": [ 107.45521, 16.661972, 0.0 ] } },
{ "type": "Feature", "properties": { "Join_Count": 1, "No": 88.0, "Code": "ĐHO.06", "ID": "ĐHO.06", "Name": "Đặng Văn Chương, thôn 8", "X": 16.661014, "Y": 107.457523, "T10_2020": 0.7, "T10_2022": "0.00", "T11_2023": 0.0, "Note": "Vết tại tường nhà bên phải", "VL2020": 2020.0, "VL2022": 2022.0, "VL2023": null, "Delta1": 0.7, "Delta2": 0.0, "Ward": "Phường Phong Phú", "Address": "Xã Điền Hòa" }, "geometry": { "type": "Point", "coordinates": [ 107.457523, 16.661014, 0.0 ] } },
{ "type": "Feature", "properties": { "Join_Count": 1, "No": 89.0, "Code": "ĐHA.01", "ID": "ĐHA.01", "Name": "TTGD nghề huyện Phong Điền", "X": 16.656025, "Y": 107.465606, "T10_2020": 0.4, "T10_2022": "không ngập", "T11_2023": 0.0, "Note": "Vết trụ chính bên phải", "VL2020": 2020.0, "VL2022": 2022.0, "VL2023": null, "Delta1": 0.4, "Delta2": 0.0, "Ward": "Xã Phong Quảng", "Address": "Xã Điền Hải" }, "geometry": { "type": "Point", "coordinates": [ 107.465606, 16.656025, 0.0 ] } },
{ "type": "Feature", "properties": { "Join_Count": 1, "No": 90.0, "Code": "ĐHA.02", "ID": "ĐHA.02", "Name": "Trường THPT Tam Giang", "X": 16.654802, "Y": 107.467091, "T10_2020": 0.74, "T10_2022": "không ngập", "T11_2023": 0.0, "Note": null, "VL2020": 2020.0, "VL2022": 2022.0, "VL2023": null, "Delta1": 0.74, "Delta2": 0.0, "Ward": "Xã Phong Quảng", "Address": "Xã Điền Hải" }, "geometry": { "type": "Point", "coordinates": [ 107.467091, 16.6548021, 0.0 ] } },
{ "type": "Feature", "properties": { "Join_Count": 1, "No": 91.0, "Code": "ĐHA.03", "ID": "ĐHA.03", "Name": "Nhà Phan Chiến", "X": 16.650755, "Y": 107.470151, "T10_2020": 1.07, "T10_2022": "0.10", "T11_2023": 0.0, "Note": "Vết tại mép tường ngoài nhà", "VL2020": 2020.0, "VL2022": 2022.0, "VL2023": null, "Delta1": 0.97, "Delta2": 0.0, "Ward": "Xã Phong Quảng", "Address": "Xã Điền Hải" }, "geometry": { "type": "Point", "coordinates": [ 107.470151, 16.650755, 0.0 ] } },
{ "type": "Feature", "properties": { "Join_Count": 1, "No": 92.0, "Code": "ĐHA.04", "ID": "ĐHA.04", "Name": "Trường TH Điền Hải", "X": 16.648159, "Y": 107.479777, "T10_2020": 0.42, "T10_2022": "không ngập", "T11_2023": 0.0, "Note": "Vết trong trường, bậc cấp cuối cùng bên phải", "VL2020": 2020.0, "VL2022": 2022.0, "VL2023": null, "Delta1": 0.42, "Delta2": 0.0, "Ward": "Xã Phong Quảng", "Address": "Xã Điền Hải" }, "geometry": { "type": "Point", "coordinates": [ 107.479777, 16.648159, 0.0 ] } },
{ "type": "Feature", "properties": { "Join_Count": 1, "No": 93.0, "Code": "ĐHA.05", "ID": "ĐHA.05", "Name": "NVH thôn 6, Điền Hải", "X": 16.645932, "Y": 107.485841, "T10_2020": 0.45, "T10_2022": "không ngập", "T11_2023": 0.0, "Note": "Ngập sân", "VL2020": 2020.0, "VL2022": 2022.0, "VL2023": null, "Delta1": 0.45, "Delta2": 0.0, "Ward": "Xã Phong Quảng", "Address": "Xã Điền Hải" }, "geometry": { "type": "Point", "coordinates": [ 107.485841, 16.645932, 0.0 ] } },
{ "type": "Feature", "properties": { "Join_Count": 1, "No": 94.0, "Code": "ĐHA.06", "ID": "ĐHA.06", "Name": "Nhà Lê Văn Thọ, thôn 7", "X": 16.638604, "Y": 107.492911, "T10_2020": 1.66, "T10_2022": "0.78", "T11_2023": 0.0, "Note": "Vết tường ngoài nhà; 1999: 2.42; 2009 1.05", "VL2020": 2020.0, "VL2022": 2022.0, "VL2023": null, "Delta1": 0.88, "Delta2": 0.0, "Ward": "Xã Phong Quảng", "Address": "Xã Điền Hải" }, "geometry": { "type": "Point", "coordinates": [ 107.492911, 16.638604, 0.0 ] } },
{ "type": "Feature", "properties": { "Join_Count": 1, "No": 95.0, "Code": "QTA.01", "ID": "QTA.01", "Name": "Nhà Hoàng Thị Huê, Xóm 8, Lai Hà", "X": 16.64761, "Y": 107.419521, "T10_2020": 0.6, "T10_2022": "Không ngập", "T11_2023": 0.08, "Note": "Vết trên tường ngoài nhà, ngoài đường ngập khoảng 0.3 đến 0.4", "VL2020": 2020.0, "VL2022": 2022.0, "VL2023": "2023", "Delta1": 0.0, "Delta2": 0.52, "Ward": "Xã Đan Điền", "Address": "Quảng Thái" }, "geometry": { "type": "Point", "coordinates": [ 107.419521, 16.64761, 0.0 ] } },
{ "type": "Feature", "properties": { "Join_Count": 1, "No": 96.0, "Code": "QTA.02", "ID": "QTA.02", "Name": "Cổng Làng Lai Hà", "X": 16.642514, "Y": 107.41941, "T10_2020": 0.84, "T10_2022": "0.17", "T11_2023": 0.0, "Note": "Vết tại trụ cổng, đo từ nền đường vào cổng chào", "VL2020": 2020.0, "VL2022": 2022.0, "VL2023": "2023", "Delta1": 0.67, "Delta2": 0.0, "Ward": "Xã Đan Điền", "Address": "Quảng Thái" }, "geometry": { "type": "Point", "coordinates": [ 107.41941, 16.642514, 0.0 ] } },
{ "type": "Feature", "properties": { "Join_Count": 1, "No": 98.0, "Code": "QTA.03", "ID": "QTA.03", "Name": "Xóm Gia Quảng, thôn Tây Hoàng", "X": 16.641592, "Y": 107.418337, "T10_2020": 0.83, "T10_2022": "Không ngập", "T11_2023": 0.0, "Note": "Vết tại trụ cổng", "VL2020": 2020.0, "VL2022": 2022.0, "VL2023": "2023", "Delta1": 0.0, "Delta2": 0.0, "Ward": "Xã Đan Điền", "Address": "Quảng Thái" }, "geometry": { "type": "Point", "coordinates": [ 107.418337, 16.641592, 0.0 ] } },
{ "type": "Feature", "properties": { "Join_Count": 1, "No": 100.0, "Code": "ISET-01", "ID": "ISET-01", "Name": "Tháp báo lũ Thông Minh thôn Trung Làng", "X": 16.63872, "Y": 107.42971, "T10_2020": 0.0, "T10_2022": "-", "T11_2023": 0.77, "Note": "Vết trên tháp", "VL2020": 0.0, "VL2022": 0.0, "VL2023": "2023", "Delta1": 0.0, "Delta2": 0.0, "Ward": "Xã Đan Điền", "Address": "Quảng Thái" }, "geometry": { "type": "Point", "coordinates": [ 107.42971, 16.63872, 0.0 ] } },
{ "type": "Feature", "properties": { "Join_Count": 1, "No": 102.0, "Code": "QTA.05", "ID": "QTA.05", "Name": "Nhà cộng đồng thôn Trung Làng", "X": 16.638693, "Y": 107.429558, "T10_2020": 1.2, "T10_2022": "0.46", "T11_2023": 0.4, "Note": "Vết trên trụ bên trái nhà cộng đồng", "VL2020": 2020.0, "VL2022": 2022.0, "VL2023": "2023", "Delta1": 0.74, "Delta2": 0.8, "Ward": "Xã Đan Điền", "Address": "Quảng Thái" }, "geometry": { "type": "Point", "coordinates": [ 107.429558, 16.638693, 0.0 ] } },
{ "type": "Feature", "properties": { "Join_Count": 1, "No": 103.0, "Code": "QTA.06", "ID": "QTA.06", "Name": "HTX NN Tam Giang", "X": 16.632425, "Y": 107.427803, "T10_2020": 1.0, "T10_2022": "0.05", "T11_2023": 0.0, "Note": "Vết trên tường ngoài nhà, đo từ nền tường", "VL2020": 2020.0, "VL2022": 2022.0, "VL2023": "2023", "Delta1": 0.95, "Delta2": 0.0, "Ward": "Xã Đan Điền", "Address": "Quảng Thái" }, "geometry": { "type": "Point", "coordinates": [ 107.427803, 16.632425, 0.0 ] } },
{ "type": "Feature", "properties": { "Join_Count": 1, "No": 104.0, "Code": "QTA.07", "ID": "QTA.07", "Name": "UBND xã Quảng Thái", "X": 16.628514, "Y": 107.432766, "T10_2020": 0.7, "T10_2022": "0.14", "T11_2023": 0.0, "Note": "Vết trên tường ngoài nhà dãy làm việc (KV ở giữa), đo từ nền sân lên.", "VL2020": 2020.0, "VL2022": 2022.0, "VL2023": "2023", "Delta1": 0.56, "Delta2": 0.0, "Ward": "Xã Đan Điền", "Address": "Quảng Thái" }, "geometry": { "type": "Point", "coordinates": [ 107.432766, 16.628514, 0.0 ] } },
{ "type": "Feature", "properties": { "Join_Count": 1, "No": 106.0, "Code": "QLO.01", "ID": "QLO.01", "Name": "Nhà Văn hóa thôn Hà Lạc", "X": 16.623201, "Y": 107.448925, "T10_2020": 0.1, "T10_2022": "không ngập", "T11_2023": 0.0, "Note": "Ngập ngoài sân; 2022 ngập khu vực ruộng xung quanh", "VL2020": 2020.0, "VL2022": 2022.0, "VL2023": "2023", "Delta1": 0.0, "Delta2": 0.0, "Ward": "Xã Đan Điền", "Address": "Quảng Lợi" }, "geometry": { "type": "Point", "coordinates": [ 107.448925, 16.623201, 0.0 ] } },
{ "type": "Feature", "properties": { "Join_Count": 1, "No": 109.0, "Code": "QLO.04", "ID": "QLO.04", "Name": "Tiểu học số 2 Quảng Lợi", "X": 16.60552, "Y": 107.47789, "T10_2020": 0.0, "T10_2022": "0.25", "T11_2023": 0.0, "Note": "Vết tại cổng trụ bên trái", "VL2020": 0.0, "VL2022": 2022.0, "VL2023": "2023", "Delta1": 0.0, "Delta2": 0.0, "Ward": "Xã Đan Điền", "Address": "Quảng Lợi" }, "geometry": { "type": "Point", "coordinates": [ 107.47789, 16.60552, 0.0 ] } },
{ "type": "Feature", "properties": { "Join_Count": 1, "No": 110.0, "Code": "QLO.05", "ID": "QLO.05", "Name": "Trường MN Quảng Lợi", "X": 16.60516, "Y": 107.47851, "T10_2020": 0.0, "T10_2022": "không ngập", "T11_2023": 0.0, "Note": "Ngập ngoài đường 20-30cm", "VL2020": 2020.0, "VL2022": 2022.0, "VL2023": "2023", "Delta1": 0.0, "Delta2": 0.0, "Ward": "Xã Đan Điền", "Address": "Quảng Lợi" }, "geometry": { "type": "Point", "coordinates": [ 107.47851, 16.60516, 0.0 ] } },
{ "type": "Feature", "properties": { "Join_Count": 1, "No": 112.0, "Code": "QLO.07", "ID": "QLO.07", "Name": "Đường liên Thôn Tháp Nhuận, nhà Lê Sơn", "X": 16.613058, "Y": 107.465307, "T10_2020": 0.0, "T10_2022": "-", "T11_2023": 0.43, "Note": "Vết tại trụ cổng bên phải", "VL2020": 0.0, "VL2022": 0.0, "VL2023": "2023", "Delta1": 0.0, "Delta2": 0.0, "Ward": "Xã Đan Điền", "Address": "Quảng Lợi" }, "geometry": { "type": "Point", "coordinates": [ 107.465307, 16.613058, 0.0 ] } },
{ "type": "Feature", "properties": { "Join_Count": 1, "No": 113.0, "Code": "QPU.01", "ID": "QPU.01", "Name": "Trường MN Sao Mai 1", "X": 16.528883, "Y": 107.48682, "T10_2020": 0.54, "T10_2022": "0.20", "T11_2023": 0.45, "Note": "Vết tại trụ cổng chính bên trái", "VL2020": 2020.0, "VL2022": 2022.0, "VL2023": "2023", "Delta1": 0.34, "Delta2": 0.09, "Ward": "Xã Đan Điền", "Address": "Quảng Phú" }, "geometry": { "type": "Point", "coordinates": [ 107.48682, 16.528883, 0.0 ] } },
{ "type": "Feature", "properties": { "Join_Count": 1, "No": 114.0, "Code": "QPU.02", "ID": "QPU.02", "Name": "UBND xã Quảng Phú", "X": 16.530669, "Y": 107.491842, "T10_2020": 0.73, "T10_2022": "0.55", "T11_2023": 0.65, "Note": "Vết trụ tường rào bên trái cổng", "VL2020": 2020.0, "VL2022": 2022.0, "VL2023": "2023", "Delta1": 0.18, "Delta2": 0.08, "Ward": "Xã Đan Điền", "Address": "Quảng Phú" }, "geometry": { "type": "Point", "coordinates": [ 107.491842, 16.530669, 0.0 ] } },
{ "type": "Feature", "properties": { "Join_Count": 1, "No": 115.0, "Code": "QPU.03", "ID": "QPU.03", "Name": "Trường THCS Đặng Hữu Phổ", "X": 16.527947, "Y": 107.492586, "T10_2020": 1.1, "T10_2022": "0.84", "T11_2023": 0.99, "Note": "Vết tại trụ cổng bên trái", "VL2020": 2020.0, "VL2022": 2022.0, "VL2023": "2023", "Delta1": 0.26, "Delta2": 0.11, "Ward": "Xã Đan Điền", "Address": "Quảng Phú" }, "geometry": { "type": "Point", "coordinates": [ 107.492586, 16.527947, 0.0 ] } },
{ "type": "Feature", "properties": { "Join_Count": 1, "No": 116.0, "Code": "CECI.03", "ID": "CECI.03", "Name": "Tháp cảnh báo lũ thôn Bác Vọng", "X": 16.535968, "Y": 107.502885, "T10_2020": 3.7, "T10_2022": "3.18", "T11_2023": 3.53, "Note": "Vết trên tháp", "VL2020": 2020.0, "VL2022": 2022.0, "VL2023": "2023", "Delta1": 0.52, "Delta2": 0.17, "Ward": "Xã Đan Điền", "Address": "Quảng Phú" }, "geometry": { "type": "Point", "coordinates": [ 107.502885, 16.535968, 0.0 ] } },
{ "type": "Feature", "properties": { "Join_Count": 1, "No": 117.0, "Code": "HĐ.06", "ID": "HĐ.06", "Name": "Tháp cảnh báo lũ thôn Xuân Tùy", "X": 16.541757, "Y": 107.503094, "T10_2020": 4.1, "T10_2022": "3.80", "T11_2023": 3.9, "Note": "Vết trên tháp", "VL2020": 2020.0, "VL2022": 2022.0, "VL2023": "2023", "Delta1": 0.3, "Delta2": 0.2, "Ward": "Xã Đan Điền", "Address": "Quảng Phú" }, "geometry": { "type": "Point", "coordinates": [ 107.503094, 16.541757, 0.0 ] } },
{ "type": "Feature", "properties": { "Join_Count": 1, "No": 118.0, "Code": "QPU.04", "ID": "QPU.04", "Name": "Trường MN Sao Mai 2", "X": 16.543805, "Y": 107.499005, "T10_2020": 1.32, "T10_2022": "1.18", "T11_2023": 1.4, "Note": "Vết tại trụ cổng bên phải", "VL2020": 2020.0, "VL2022": 2022.0, "VL2023": "2023", "Delta1": 0.14, "Delta2": -0.08, "Ward": "Xã Đan Điền", "Address": "Quảng Phú" }, "geometry": { "type": "Point", "coordinates": [ 107.499005, 16.543805, 0.0 ] } },
{ "type": "Feature", "properties": { "Join_Count": 1, "No": 119.0, "Code": "CECI.04", "ID": "CECI.04", "Name": "Tháp cảnh báo lũ thôn Nam Phù", "X": 16.544736, "Y": 107.512025, "T10_2020": 4.15, "T10_2022": "3.70", "T11_2023": 3.9, "Note": "Vết trên tháp", "VL2020": 2020.0, "VL2022": 2022.0, "VL2023": "2023", "Delta1": 0.45, "Delta2": 0.25, "Ward": "Xã Đan Điền", "Address": "Quảng Phú" }, "geometry": { "type": "Point", "coordinates": [ 107.512025, 16.544736, 0.0 ] } },
{ "type": "Feature", "properties": { "Join_Count": 1, "No": 120.0, "Code": "QPU.05", "ID": "QPU.05", "Name": "Nguyễn Thanh Sơn, Nho Lâm", "X": 16.544283, "Y": 107.513235, "T10_2020": 0.88, "T10_2022": "0.24", "T11_2023": 0.68, "Note": "Vết tường rào bên phải cổng", "VL2020": 2020.0, "VL2022": 2022.0, "VL2023": "2023", "Delta1": 0.64, "Delta2": 0.2, "Ward": "Xã Đan Điền", "Address": "Quảng Phú" }, "geometry": { "type": "Point", "coordinates": [ 107.513235, 16.544283, 0.0 ] } },
{ "type": "Feature", "properties": { "Join_Count": 1, "No": 121.0, "Code": "QPU.06", "ID": "QPU.06", "Name": "NVH thôn Nghĩa Lộ", "X": 16.550178, "Y": 107.50587, "T10_2020": 1.0, "T10_2022": "0.51", "T11_2023": 0.64, "Note": "Vết tại tường nhà làm việc", "VL2020": 2020.0, "VL2022": 2022.0, "VL2023": "2023", "Delta1": 0.49, "Delta2": 0.36, "Ward": "Xã Đan Điền", "Address": "Quảng Phú" }, "geometry": { "type": "Point", "coordinates": [ 107.50587, 16.550178, 0.0 ] } },
{ "type": "Feature", "properties": { "Join_Count": 1, "No": 122.0, "Code": "SMQPU.01", "ID": "SMQPU.01", "Name": "Nhà VH thôn Hà Cảng", "X": 16.52719, "Y": 107.47899, "T10_2020": 1.5, "T10_2022": "-", "T11_2023": 1.15, "Note": "Vết tại tường nhà làm việc", "VL2020": 2020.0, "VL2022": 0.0, "VL2023": "2023", "Delta1": 0.0, "Delta2": 0.35, "Ward": "Xã Đan Điền", "Address": "Quảng Phú" }, "geometry": { "type": "Point", "coordinates": [ 107.47899, 16.52719, 0.0 ] } },
{ "type": "Feature", "properties": { "Join_Count": 1, "No": 123.0, "Code": "SMQPU.02", "ID": "SMQPU.02", "Name": "Cổng thôn Hà Cảng Xóm 8", "X": 16.53245, "Y": 107.47444, "T10_2020": 0.0, "T10_2022": "-", "T11_2023": 0.6, "Note": "Vết tại cổng thôn", "VL2020": 0.0, "VL2022": 0.0, "VL2023": "2023", "Delta1": 0.0, "Delta2": 0.0, "Ward": "Xã Đan Điền", "Address": "Quảng Phú" }, "geometry": { "type": "Point", "coordinates": [ 107.47444, 16.53245, 0.0 ] } },
{ "type": "Feature", "properties": { "Join_Count": 1, "No": 124.0, "Code": "SMQPU.03", "ID": "SMQPU.03", "Name": "Nhà Bà Hồ Thị Lành Thôn Bao La", "X": 16.53982, "Y": 107.49477, "T10_2020": 0.0, "T10_2022": "-", "T11_2023": 1.05, "Note": "Vêết tại tường rào nhà", "VL2020": 0.0, "VL2022": 0.0, "VL2023": "2023", "Delta1": 0.0, "Delta2": 0.0, "Ward": "Xã Đan Điền", "Address": "Quảng Phú" }, "geometry": { "type": "Point", "coordinates": [ 107.49477, 16.53982, 0.0 ] } },
{ "type": "Feature", "properties": { "Join_Count": 1, "No": 125.0, "Code": "SMQPU.04", "ID": "SMQPU.04", "Name": "Tháp báo lũ số 02TTH Phú Nam Nho Lâm", "X": 16.54405, "Y": 107.51257, "T10_2020": 0.0, "T10_2022": "-", "T11_2023": 0.85, "Note": "Vêết tại trụ, đường chính chưa ngập", "VL2020": 0.0, "VL2022": 0.0, "VL2023": "2023", "Delta1": 0.0, "Delta2": 0.0, "Ward": "Xã Đan Điền", "Address": "Quảng Phú" }, "geometry": { "type": "Point", "coordinates": [ 107.51257, 16.54405, 0.0 ] } },
{ "type": "Feature", "properties": { "Join_Count": 1, "No": 126.0, "Code": "QVI.01", "ID": "QVI.01", "Name": "Trung tâm GDTX Quảng Điền", "X": 16.571491, "Y": 107.501993, "T10_2020": 1.92, "T10_2022": "1.35", "T11_2023": 1.57, "Note": "Vết tại trụ tường rào bên trái", "VL2020": 2020.0, "VL2022": 2022.0, "VL2023": "2023", "Delta1": 0.57, "Delta2": 0.35, "Ward": "Xã Quảng Điền", "Address": "Quảng Vinh" }, "geometry": { "type": "Point", "coordinates": [ 107.501993, 16.571491, 0.0 ] } },
{ "type": "Feature", "properties": { "Join_Count": 1, "No": 129.0, "Code": "QVI.04", "ID": "QVI.04", "Name": "Chợ Quảng Vinh (+0,45 m)", "X": 16.556862, "Y": 107.493863, "T10_2020": 0.86, "T10_2022": "0.45", "T11_2023": 0.53, "Note": "Vết tại trụ ngoài cùng bên phải, đo từ nền ngoài chợ", "VL2020": 2020.0, "VL2022": 2022.0, "VL2023": "2023", "Delta1": 0.41, "Delta2": 0.33, "Ward": "Xã Đan Điền", "Address": "Quảng Vinh" }, "geometry": { "type": "Point", "coordinates": [ 107.493863, 16.556862, 0.0 ] } },
{ "type": "Feature", "properties": { "Join_Count": 1, "No": 130.0, "Code": "QVI.05", "ID": "QVI.05", "Name": "Trạm Y tế xã Quảng Vinh", "X": 16.557084, "Y": 107.49268, "T10_2020": 0.6, "T10_2022": "Vừa vào đên sân", "T11_2023": 0.1, "Note": "Nhà trạm xây mới không đánh vết", "VL2020": 2020.0, "VL2022": 2022.0, "VL2023": "2023", "Delta1": 0.0, "Delta2": 0.5, "Ward": "Xã Đan Điền", "Address": "Quảng Vinh" }, "geometry": { "type": "Point", "coordinates": [ 107.49268, 16.557084, 0.0 ] } },
{ "type": "Feature", "properties": { "Join_Count": 1, "No": 132.0, "Code": "SMQVI.01", "ID": "SMQVI.01", "Name": "Nhà Hồ Thị Ánh (Thôn Liên Trung) ", "X": 16.55478, "Y": 107.4932, "T10_2020": 0.0, "T10_2022": "-", "T11_2023": 1.14, "Note": "Vết trên tường", "VL2020": 0.0, "VL2022": 0.0, "VL2023": "2023", "Delta1": 0.0, "Delta2": 0.0, "Ward": "Xã Đan Điền", "Address": "Quảng Vinh" }, "geometry": { "type": "Point", "coordinates": [ 107.4932, 16.55478, 0.0 ] } },
{ "type": "Feature", "properties": { "Join_Count": 1, "No": 133.0, "Code": "SMQVI.02", "ID": "SMQVI.02", "Name": "Cổng làng thôn Lai Trung", "X": 16.557613, "Y": 107.495532, "T10_2020": 1.1, "T10_2022": "-", "T11_2023": 0.9, "Note": "Vết tại cổng trụ bên phải", "VL2020": 2020.0, "VL2022": 0.0, "VL2023": "2023", "Delta1": 0.0, "Delta2": 0.2, "Ward": "Xã Đan Điền", "Address": "Quảng Vinh" }, "geometry": { "type": "Point", "coordinates": [ 107.495532, 16.557613, 0.0 ] } },
{ "type": "Feature", "properties": { "Join_Count": 1, "No": 135.0, "Code": "SIA.02", "ID": "SIA.02", "Name": "Tòa án nhân dân huyện Quảng Điền", "X": 16.570116, "Y": 107.513466, "T10_2020": 0.0, "T10_2022": "0.6", "T11_2023": 0.81, "Note": "Vết tại trụ bên trái cổng vào, đo từ nền lên", "VL2020": 0.0, "VL2022": 2022.0, "VL2023": "2023", "Delta1": 0.0, "Delta2": 0.0, "Ward": "Xã Quảng Điền", "Address": "Thị trấn Sịa" }, "geometry": { "type": "Point", "coordinates": [ 107.5134663, 16.5701161, 0.0 ] } },
{ "type": "Feature", "properties": { "Join_Count": 1, "No": 138.0, "Code": "SIA.05", "ID": "SIA.05", "Name": "Nhà Phang Phăng- thôn An Gia", "X": 16.59355, "Y": 107.52408, "T10_2020": 1.13, "T10_2022": "0.10", "T11_2023": 0.26, "Note": "Vết trên tường nhà, đo từ nền lên", "VL2020": 2020.0, "VL2022": 2022.0, "VL2023": "2023", "Delta1": 1.03, "Delta2": 0.87, "Ward": "Xã Quảng Điền", "Address": "Thị trấn Sịa" }, "geometry": { "type": "Point", "coordinates": [ 107.52408, 16.59355, 0.0 ] } },
{ "type": "Feature", "properties": { "Join_Count": 1, "No": 139.0, "Code": "SMSIA.01", "ID": "SMSIA.01", "Name": "UBMTTQVN huyện Quảng Điền", "X": 16.57469, "Y": 107.5111, "T10_2020": 0.0, "T10_2022": "-", "T11_2023": 0.85, "Note": "Vết tại tường rào bên trái", "VL2020": 0.0, "VL2022": 0.0, "VL2023": "2023", "Delta1": 0.0, "Delta2": 0.0, "Ward": "Xã Quảng Điền", "Address": "Thị trấn Sịa" }, "geometry": { "type": "Point", "coordinates": [ 107.5111, 16.57469, 0.0 ] } },
{ "type": "Feature", "properties": { "Join_Count": 1, "No": 140.0, "Code": "SMSIA.02", "ID": "SMSIA.02", "Name": "Căn tin sân bóng Vinh Phú", "X": 16.57198, "Y": 107.51021, "T10_2020": 0.0, "T10_2022": "-", "T11_2023": 0.53, "Note": "Vết tại tường rào", "VL2020": 0.0, "VL2022": 0.0, "VL2023": "2023", "Delta1": 0.0, "Delta2": 0.0, "Ward": "Xã Quảng Điền", "Address": "Thị trấn Sịa" }, "geometry": { "type": "Point", "coordinates": [ 107.51021, 16.57198, 0.0 ] } },
{ "type": "Feature", "properties": { "Join_Count": 1, "No": 141.0, "Code": "KHCN.11", "ID": "KHCN.11", "Name": "Tháp An Gia", "X": 16.59326, "Y": 107.524865, "T10_2020": 1.48, "T10_2022": "0.45", "T11_2023": 0.62, "Note": "Vết trên tháp", "VL2020": 2020.0, "VL2022": 2022.0, "VL2023": "2023", "Delta1": 1.03, "Delta2": 0.86, "Ward": "Xã Quảng Điền", "Address": "Thị trấn Sịa" }, "geometry": { "type": "Point", "coordinates": [ 107.524865, 16.59326, 0.0 ] } },
{ "type": "Feature", "properties": { "Join_Count": 1, "No": 142.0, "Code": "QPO.01", "ID": "QPO.01", "Name": "UBND xã Quảng Phước", "X": 16.572442, "Y": 107.519962, "T10_2020": 1.16, "T10_2022": "0.58", "T11_2023": 0.3, "Note": "Vết tại sảnh chính (bên phải)", "VL2020": 2020.0, "VL2022": 2022.0, "VL2023": "2023", "Delta1": 0.58, "Delta2": 0.86, "Ward": "Xã Quảng Điền", "Address": "Quảng Phước" }, "geometry": { "type": "Point", "coordinates": [ 107.519962, 16.572442, 0.0 ] } },
{ "type": "Feature", "properties": { "Join_Count": 1, "No": 143.0, "Code": "QPO.02", "ID": "QPO.02", "Name": "Nhà Văn hóa thôn Thủ Lễ 2", "X": 16.572531, "Y": 107.520198, "T10_2020": 1.2, "T10_2022": "0.8", "T11_2023": 0.93, "Note": "Vết tại trụ cổng chính bên phải", "VL2020": 2020.0, "VL2022": 2022.0, "VL2023": "2023", "Delta1": 0.4, "Delta2": 0.27, "Ward": "Xã Quảng Điền", "Address": "Quảng Phước" }, "geometry": { "type": "Point", "coordinates": [ 107.520198, 16.572531, 0.0 ] } },
{ "type": "Feature", "properties": { "Join_Count": 1, "No": 144.0, "Code": "QPO.03", "ID": "QPO.03", "Name": "Trường THCS Ngô Thế Lân", "X": 16.57102, "Y": 107.52139, "T10_2020": 0.74, "T10_2022": "0.30", "T11_2023": 0.5, "Note": "Vêt tại trụ tường rào bên trái, đo từ nền", "VL2020": 2020.0, "VL2022": 2022.0, "VL2023": "2023", "Delta1": 0.44, "Delta2": 0.24, "Ward": "Xã Quảng Điền", "Address": "Quảng Phước" }, "geometry": { "type": "Point", "coordinates": [ 107.52139, 16.57102, 0.0 ] } },
{ "type": "Feature", "properties": { "Join_Count": 1, "No": 145.0, "Code": "QPO.04", "ID": "QPO.04", "Name": "Cổng làng xóm 15, thôn Thủ Lễ 3", "X": 16.564008, "Y": 107.524349, "T10_2020": 1.2, "T10_2022": "0.90", "T11_2023": 1.1, "Note": "Vết tại Trụ cổng bên phải", "VL2020": 2020.0, "VL2022": 2022.0, "VL2023": "2023", "Delta1": 0.3, "Delta2": 0.1, "Ward": "Xã Quảng Điền", "Address": "Quảng Phước" }, "geometry": { "type": "Point", "coordinates": [ 107.524349, 16.564008, 0.0 ] } },
{ "type": "Feature", "properties": { "Join_Count": 1, "No": 146.0, "Code": "SMQPO.01", "ID": "SMQPO.01", "Name": "35/15 Tam Giang TDP An Gia", "X": 16.58482, "Y": 107.51825, "T10_2020": 0.0, "T10_2022": "-", "T11_2023": 0.3, "Note": "Vết tại Trụ cổng", "VL2020": 0.0, "VL2022": 0.0, "VL2023": "2023", "Delta1": 0.0, "Delta2": 0.0, "Ward": "Xã Quảng Điền", "Address": "Quảng Phước" }, "geometry": { "type": "Point", "coordinates": [ 107.51825, 16.58482, 0.0 ] } },
{ "type": "Feature", "properties": { "Join_Count": 1, "No": 147.0, "Code": "SMQPO.02", "ID": "SMQPO.02", "Name": "06 Trần Hữu Khác", "X": 16.58141, "Y": 107.51948, "T10_2020": 0.0, "T10_2022": "-", "T11_2023": 0.0, "Note": "Vết tại tường rào", "VL2020": 0.0, "VL2022": 0.0, "VL2023": "2023", "Delta1": 0.0, "Delta2": 0.0, "Ward": "Xã Quảng Điền", "Address": "Quảng Phước" }, "geometry": { "type": "Point", "coordinates": [ 107.51948, 16.58141, 0.0 ] } },
{ "type": "Feature", "properties": { "Join_Count": 1, "No": 148.0, "Code": "SMQPO.03", "ID": "SMQPO.03", "Name": "Cổng làng xóm 9 Thủ Lễ", "X": 16.5675, "Y": 107.52279, "T10_2020": 0.0, "T10_2022": "-", "T11_2023": 0.0, "Note": "Vết tại trụ cổng", "VL2020": 0.0, "VL2022": 0.0, "VL2023": "2023", "Delta1": 0.0, "Delta2": 0.0, "Ward": "Xã Quảng Điền", "Address": "Quảng Phước" }, "geometry": { "type": "Point", "coordinates": [ 107.52279, 16.5675, 0.0 ] } },
{ "type": "Feature", "properties": { "Join_Count": 1, "No": 149.0, "Code": "SMQPO.04", "ID": "SMQPO.04", "Name": "Nhà thờ Gia Lộ Thủ Lễ", "X": 16.56689, "Y": 107.52044, "T10_2020": 0.0, "T10_2022": "-", "T11_2023": 0.0, "Note": "Vết tại tường rào bên phải", "VL2020": 0.0, "VL2022": 0.0, "VL2023": "2023", "Delta1": 0.0, "Delta2": 0.0, "Ward": "Xã Quảng Điền", "Address": "Quảng Phước" }, "geometry": { "type": "Point", "coordinates": [ 107.52044, 16.56689, 0.0 ] } },
{ "type": "Feature", "properties": { "Join_Count": 1, "No": 150.0, "Code": "ISET - 03", "ID": "ISET - 03", "Name": "Tháo báo lũ thông minh thôn Thủ Lễ", "X": 16.563915, "Y": 107.524401, "T10_2020": 0.0, "T10_2022": null, "T11_2023": 1.33, "Note": "Vết trên tháp", "VL2020": 0.0, "VL2022": 0.0, "VL2023": "2023", "Delta1": 0.0, "Delta2": 0.0, "Ward": "Xã Quảng Điền", "Address": "Quảng Phước" }, "geometry": { "type": "Point", "coordinates": [ 107.524401, 16.563915, 0.0 ] } },
{ "type": "Feature", "properties": { "Join_Count": 1, "No": 152.0, "Code": "ISET-02", "ID": "ISET-02", "Name": "Tháp báo lũ Thông Minh - Phò Nam", "X": 16.54, "Y": 107.520278, "T10_2020": 1.23, "T10_2022": "0.90", "T11_2023": 0.87, "Note": "Vết trên tháp", "VL2020": 2020.0, "VL2022": 2022.0, "VL2023": "2023", "Delta1": 0.33, "Delta2": 0.36, "Ward": "Xã Quảng Điền", "Address": "Quảng Thọ" }, "geometry": { "type": "Point", "coordinates": [ 107.520278, 16.54, 0.0 ] } },
{ "type": "Feature", "properties": { "Join_Count": 1, "No": 155.0, "Code": "QTO.03", "ID": "QTO.03", "Name": "Trường THCS Trần Thúc Nhẫn", "X": 16.532776, "Y": 107.525379, "T10_2020": 0.96, "T10_2022": "0.38", "T11_2023": 0.53, "Note": "Vết tại trụ tường rào bên trái", "VL2020": 2020.0, "VL2022": 2022.0, "VL2023": "2023", "Delta1": 0.58, "Delta2": 0.43, "Ward": "Xã Quảng Điền", "Address": "Quảng Thọ" }, "geometry": { "type": "Point", "coordinates": [ 107.525379, 16.532776, 0.0 ] } },
{ "type": "Feature", "properties": { "Join_Count": 1, "No": 159.0, "Code": "QTO.07", "ID": "QTO.07", "Name": "HTX nông nghiệp Quảng Thọ", "X": 16.525437, "Y": 107.528616, "T10_2020": 0.7, "T10_2022": "Không ngập", "T11_2023": 0.0, "Note": "Vết tại tường nhà làm việc bên trái", "VL2020": 2020.0, "VL2022": 2022.0, "VL2023": "2023", "Delta1": 0.0, "Delta2": 0.0, "Ward": "Xã Quảng Điền", "Address": "Quảng Thọ" }, "geometry": { "type": "Point", "coordinates": [ 107.528616, 16.525437, 0.0 ] } },
{ "type": "Feature", "properties": { "Join_Count": 1, "No": 160.0, "Code": "QTO.08", "ID": "QTO.08", "Name": "Trương Đình Hiếu, Chợ Phước Yên", "X": 16.517597, "Y": 107.513259, "T10_2020": 0.8, "T10_2022": "-", "T11_2023": 0.75, "Note": "Vết tại mép tường phía chợ, đo từ nền", "VL2020": 2020.0, "VL2022": 0.0, "VL2023": "2023", "Delta1": 0.0, "Delta2": 0.05, "Ward": "Xã Quảng Điền", "Address": "Quảng Thọ" }, "geometry": { "type": "Point", "coordinates": [ 107.513259, 16.517597, 0.0 ] } },
{ "type": "Feature", "properties": { "Join_Count": 1, "No": 161.0, "Code": "HĐ.08", "ID": "HĐ.08", "Name": "Tháp báo lũ La Vân Hạ", "X": 16.532992, "Y": 107.539155, "T10_2020": 2.9, "T10_2022": "2.50", "T11_2023": 2.4, "Note": "Vết trên tháp", "VL2020": 2020.0, "VL2022": 2022.0, "VL2023": "2023", "Delta1": 0.4, "Delta2": 0.5, "Ward": "Xã Quảng Điền", "Address": "Quảng Thọ" }, "geometry": { "type": "Point", "coordinates": [ 107.539155, 16.532992, 0.0 ] } },
{ "type": "Feature", "properties": { "Join_Count": 1, "No": 165.0, "Code": "QAN.01", "ID": "QAN.01", "Name": "Nhà Văn hóa xã Quảng An", "X": 16.550076, "Y": 107.539287, "T10_2020": 1.15, "T10_2022": "0.50", "T11_2023": 0.4, "Note": "Vết tại Trụ điện trước NVH", "VL2020": 2020.0, "VL2022": 2022.0, "VL2023": "2023", "Delta1": 0.65, "Delta2": 0.75, "Ward": "Xã Quảng Điền", "Address": "Quảng An" }, "geometry": { "type": "Point", "coordinates": [ 107.539287, 16.550076, 0.0 ] } },
{ "type": "Feature", "properties": { "Join_Count": 1, "No": 166.0, "Code": "HĐ.09", "ID": "HĐ.09", "Name": "Tháp cảnh báo lũ Phước Thanh", "X": 16.557026, "Y": 107.543426, "T10_2020": 3.1, "T10_2022": "2.59", "T11_2023": 1.97, "Note": "Vết trên Tháp", "VL2020": 2020.0, "VL2022": 2022.0, "VL2023": "2023", "Delta1": 0.51, "Delta2": 1.13, "Ward": "Xã Quảng Điền", "Address": "Quảng An" }, "geometry": { "type": "Point", "coordinates": [ 107.543426, 16.557026, 0.0 ] } },
{ "type": "Feature", "properties": { "Join_Count": 1, "No": 167.0, "Code": "QAN.02", "ID": "QAN.02", "Name": "UBND xã Quảng An", "X": 16.54978, "Y": 107.54, "T10_2020": 0.0, "T10_2022": "0.45", "T11_2023": 0.4, "Note": "Vết trên tường ngoài dãy nhà chính", "VL2020": 0.0, "VL2022": 2022.0, "VL2023": "2023", "Delta1": 0.0, "Delta2": 0.0, "Ward": "Xã Quảng Điền", "Address": "Quảng An" }, "geometry": { "type": "Point", "coordinates": [ 107.54, 16.54978, 0.0 ] } },
{ "type": "Feature", "properties": { "Join_Count": 1, "No": 168.0, "Code": "JICA.03", "ID": "JICA.03", "Name": "Tháp cảnh báo lũ Mỹ Xá", "X": 16.549552, "Y": 107.540311, "T10_2020": 3.45, "T10_2022": "2.86", "T11_2023": 2.77, "Note": "Vết trên Tháp", "VL2020": 2020.0, "VL2022": 2022.0, "VL2023": "2023", "Delta1": 0.59, "Delta2": 0.68, "Ward": "Xã Quảng Điền", "Address": "Quảng An" }, "geometry": { "type": "Point", "coordinates": [ 107.540311, 16.549552, 0.0 ] } },
{ "type": "Feature", "properties": { "Join_Count": 1, "No": 169.0, "Code": "QAN.03", "ID": "QAN.03", "Name": "Trường TH số 1 Quảng An", "X": 16.547613, "Y": 107.542659, "T10_2020": 1.28, "T10_2022": "0.54", "T11_2023": 0.93, "Note": "Vết tại trụ đầu tiên dãy nhà học bên phải", "VL2020": 2020.0, "VL2022": 2022.0, "VL2023": "2023", "Delta1": 0.74, "Delta2": 0.35, "Ward": "Xã Quảng Điền", "Address": "Quảng An" }, "geometry": { "type": "Point", "coordinates": [ 107.542659, 16.547613, 0.0 ] } },
{ "type": "Feature", "properties": { "Join_Count": 1, "No": 170.0, "Code": "SMQA 01", "ID": "SMQA 01", "Name": "Nhà Văn hoá thôn An Xuân", "X": 16.56212, "Y": 107.55095, "T10_2020": 0.0, "T10_2022": "-", "T11_2023": 1.2, "Note": "Vết tại tường nhà", "VL2020": 0.0, "VL2022": 0.0, "VL2023": "2023", "Delta1": 0.0, "Delta2": 0.0, "Ward": "Xã Quảng Điền", "Address": "Quảng An" }, "geometry": { "type": "Point", "coordinates": [ 107.55095, 16.56212, 0.0 ] } },
{ "type": "Feature", "properties": { "Join_Count": 1, "No": 171.0, "Code": "SMQA 02", "ID": "SMQA 02", "Name": "Cột điện trước đường liên thôn Phú Lương", "X": 16.56437, "Y": 107.54362, "T10_2020": 0.0, "T10_2022": "-", "T11_2023": 0.2, "Note": "Vết tại cột điện", "VL2020": 0.0, "VL2022": 0.0, "VL2023": "2023", "Delta1": 0.0, "Delta2": 0.0, "Ward": "Xã Quảng Điền", "Address": "Quảng An" }, "geometry": { "type": "Point", "coordinates": [ 107.54362, 16.56437, 0.0 ] } },
{ "type": "Feature", "properties": { "Join_Count": 1, "No": 172.0, "Code": "SMQA 03", "ID": "SMQA 03", "Name": "Trạm bơm Mỹ Xá", "X": 16.54907, "Y": 107.54011, "T10_2020": 0.0, "T10_2022": "-", "T11_2023": 0.8, "Note": "Vết tại tường nhà", "VL2020": 0.0, "VL2022": 0.0, "VL2023": "2023", "Delta1": 0.0, "Delta2": 0.0, "Ward": "Xã Quảng Điền", "Address": "Quảng An" }, "geometry": { "type": "Point", "coordinates": [ 107.54011, 16.54907, 0.0 ] } },
{ "type": "Feature", "properties": { "Join_Count": 1, "No": 173.0, "Code": "SMQA 04", "ID": "SMQA 04", "Name": "Đình làng Mỹ Xá", "X": 16.54765, "Y": 107.54622, "T10_2020": 0.0, "T10_2022": "-", "T11_2023": 0.7, "Note": "Vết tại cột điện", "VL2020": 0.0, "VL2022": 0.0, "VL2023": "2023", "Delta1": 0.0, "Delta2": 0.0, "Ward": "Xã Quảng Điền", "Address": "Quảng An" }, "geometry": { "type": "Point", "coordinates": [ 107.54622, 16.54765, 0.0 ] } },
{ "type": "Feature", "properties": { "Join_Count": 1, "No": 174.0, "Code": "QAN.04", "ID": "QAN.04", "Name": "Trường THCS Nguyễn Hữu Dật", "X": 16.547514, "Y": 107.548876, "T10_2020": 0.0, "T10_2022": "0.40", "T11_2023": 0.2, "Note": "Vết tại trụ bên phải, đo từ nền", "VL2020": 0.0, "VL2022": 2022.0, "VL2023": "2023", "Delta1": 0.0, "Delta2": 0.0, "Ward": "Xã Quảng Điền", "Address": "Quảng An" }, "geometry": { "type": "Point", "coordinates": [ 107.5488758, 16.5475144, 0.0 ] } },
{ "type": "Feature", "properties": { "Join_Count": 1, "No": 175.0, "Code": "HĐ.10", "ID": "HĐ.10", "Name": "Tháp Phú Lương A", "X": 16.533611, "Y": 107.546971, "T10_2020": 2.8, "T10_2022": "2.10", "T11_2023": 2.45, "Note": "Vết trên tháp, đường ngập 0.8-1.0", "VL2020": 2020.0, "VL2022": 2022.0, "VL2023": "2023", "Delta1": 0.0, "Delta2": 0.0, "Ward": "Phường Hóa Châu", "Address": "Quảng Thành" }, "geometry": { "type": "Point", "coordinates": [ 107.546971, 16.533611, 0.0 ] } },
{ "type": "Feature", "properties": { "Join_Count": 1, "No": 176.0, "Code": "QTH.01", "ID": "QTH.01", "Name": "Trường MN Cơ Sở 1 Phú Thanh (Thanh Hà)", "X": 16.540212, "Y": 107.557771, "T10_2020": 1.25, "T10_2022": "0.79", "T11_2023": 0.6, "Note": "Vết trụ cổng bên phải", "VL2020": 2020.0, "VL2022": 2022.0, "VL2023": "2023", "Delta1": 0.46, "Delta2": 0.65, "Ward": "Phường Hóa Châu", "Address": "Quảng Thành" }, "geometry": { "type": "Point", "coordinates": [ 107.557771, 16.540212, 0.0 ] } },
{ "type": "Feature", "properties": { "Join_Count": 1, "No": 177.0, "Code": "QTH.02", "ID": "QTH.02", "Name": "Nhà Nguyễn Văn Hậu, thôn Thanh Hà", "X": 16.531313, "Y": 107.558221, "T10_2020": 1.15, "T10_2022": "0.62", "T11_2023": 0.8, "Note": "Vết tại trụ nhà bên trái", "VL2020": 2020.0, "VL2022": 2022.0, "VL2023": "2023", "Delta1": 0.53, "Delta2": 0.35, "Ward": "Phường Hóa Châu", "Address": "Quảng Thành" }, "geometry": { "type": "Point", "coordinates": [ 107.558221, 16.531313, 0.0 ] } },
{ "type": "Feature", "properties": { "Join_Count": 1, "No": 178.0, "Code": "JICA.04", "ID": "JICA.04", "Name": "Tháp cảnh báo lũ trước UBND xã", "X": 16.542388, "Y": 107.556222, "T10_2020": 0.0, "T10_2022": "+2,10", "T11_2023": 0.0, "Note": "Vết trên tháp, đường ngập 1.0-1.2", "VL2020": 2020.0, "VL2022": 2022.0, "VL2023": "2023", "Delta1": 0.0, "Delta2": 0.0, "Ward": "Phường Hóa Châu", "Address": "Quảng Thành" }, "geometry": { "type": "Point", "coordinates": [ 107.556222, 16.542388, 0.0 ] } },
{ "type": "Feature", "properties": { "Join_Count": 1, "No": 179.0, "Code": "QTH.03", "ID": "QTH.03", "Name": "Trường MN Cơ Sở 2 Phú Thanh", "X": 16.53393, "Y": 107.555475, "T10_2020": 1.1, "T10_2022": "0.64", "T11_2023": 0.3, "Note": "Vết trụ cổng bên trái, từ nền sân", "VL2020": 2020.0, "VL2022": 2022.0, "VL2023": "2023", "Delta1": 0.46, "Delta2": 0.8, "Ward": "Phường Hóa Châu", "Address": "Quảng Thành" }, "geometry": { "type": "Point", "coordinates": [ 107.555475, 16.53393, 0.0 ] } },
{ "type": "Feature", "properties": { "Join_Count": 1, "No": 180.0, "Code": "QTH.04", "ID": "QTH.04", "Name": "Trường Tiểu học Cơ sở 2 Quảng Thành", "X": 16.545789, "Y": 107.572783, "T10_2020": 1.08, "T10_2022": "0.55", "T11_2023": 0.3, "Note": "Vết tại trụ tường rào bên trái, đo từ nền sân", "VL2020": 2020.0, "VL2022": 2022.0, "VL2023": "2023", "Delta1": 0.53, "Delta2": 0.78, "Ward": "Phường Hóa Châu", "Address": "Quảng Thành" }, "geometry": { "type": "Point", "coordinates": [ 107.572783, 16.545789, 0.0 ] } },
{ "type": "Feature", "properties": { "Join_Count": 1, "No": 181.0, "Code": "SMQTh 01", "ID": "SMQTh 01", "Name": "Trường THCS Đặng Tất", "X": 16.54428, "Y": 107.55402, "T10_2020": 0.0, "T10_2022": null, "T11_2023": 0.9, "Note": "Vết tại cột điện trước cổng trường", "VL2020": 0.0, "VL2022": 0.0, "VL2023": "2023", "Delta1": 0.0, "Delta2": 0.0, "Ward": "Phường Hóa Châu", "Address": "Quảng Thành" }, "geometry": { "type": "Point", "coordinates": [ 107.55402, 16.54428, 0.0 ] } },
{ "type": "Feature", "properties": { "Join_Count": 1, "No": 182.0, "Code": "SMQTh 02", "ID": "SMQTh 02", "Name": "Đình làng Tây Thành", "X": 16.53637, "Y": 107.55993, "T10_2020": 0.0, "T10_2022": null, "T11_2023": 0.8, "Note": "Vết tại trụ điện trước đình", "VL2020": 0.0, "VL2022": 0.0, "VL2023": "2023", "Delta1": 0.0, "Delta2": 0.0, "Ward": "Phường Hóa Châu", "Address": "Quảng Thành" }, "geometry": { "type": "Point", "coordinates": [ 107.55993, 16.53637, 0.0 ] } },
{ "type": "Feature", "properties": { "Join_Count": 1, "No": 183.0, "Code": "QNA.01", "ID": "QNA.01", "Name": "THCS Phạm Quang Ái", "X": 16.632144, "Y": 107.507612, "T10_2020": 0.94, "T10_2022": "0.38", "T11_2023": 0.44, "Note": "Vết tại trụ tường rào bên phải", "VL2020": 2020.0, "VL2022": 2022.0, "VL2023": "2023", "Delta1": 0.56, "Delta2": 0.5, "Ward": "Xã Phong Quảng", "Address": "Quảng Ngạn" }, "geometry": { "type": "Point", "coordinates": [ 107.507612, 16.632144, 0.0 ] } },
{ "type": "Feature", "properties": { "Join_Count": 1, "No": 184.0, "Code": "QNA.02", "ID": "QNA.02", "Name": "Trường Mầm Non Quảng Ngạn", "X": 16.626614, "Y": 107.517239, "T10_2020": 0.5, "T10_2022": "0.36", "T11_2023": 0.0, "Note": "đường nâng", "VL2020": 2020.0, "VL2022": 2022.0, "VL2023": "2023", "Delta1": 0.14, "Delta2": 0.0, "Ward": "Xã Phong Quảng", "Address": "Quảng Ngạn" }, "geometry": { "type": "Point", "coordinates": [ 107.5172392, 16.6266144, 0.0 ] } },
{ "type": "Feature", "properties": { "Join_Count": 1, "No": 185.0, "Code": "QNA.03", "ID": "QNA.03", "Name": "Giáo xứ Linh Thủy, thôn 3", "X": 16.626259, "Y": 107.519157, "T10_2020": 0.7, "T10_2022": "0.12", "T11_2023": 0.2, "Note": "Vết tại tường nhà trước mặt giáo xứ", "VL2020": 2020.0, "VL2022": 2022.0, "VL2023": "2023", "Delta1": 0.58, "Delta2": 0.5, "Ward": "Xã Phong Quảng", "Address": "Quảng Ngạn" }, "geometry": { "type": "Point", "coordinates": [ 107.519157, 16.626259, 0.0 ] } },
{ "type": "Feature", "properties": { "Join_Count": 1, "No": 186.0, "Code": "QNA.04", "ID": "QNA.04", "Name": "Chợ Vĩnh Tu", "X": 16.625008, "Y": 107.5207, "T10_2020": 0.48, "T10_2022": "-0.22", "T11_2023": -0.07, "Note": "Vết trên trụ chính vào chợ phía bên trái đo từ nền, ngoài ngập 30-50cm", "VL2020": 2020.0, "VL2022": 2022.0, "VL2023": "2023", "Delta1": 0.7, "Delta2": 0.55, "Ward": "Xã Phong Quảng", "Address": "Quảng Ngạn" }, "geometry": { "type": "Point", "coordinates": [ 107.5207, 16.625008, 0.0 ] } },
{ "type": "Feature", "properties": { "Join_Count": 1, "No": 187.0, "Code": "QCO.01", "ID": "QCO.01", "Name": "Trường THCS Phan Thế Phương", "X": 16.623278, "Y": 107.525377, "T10_2020": 0.88, "T10_2022": "không ngập", "T11_2023": 0.46, "Note": null, "VL2020": 2020.0, "VL2022": 2022.0, "VL2023": "2023", "Delta1": 0.0, "Delta2": 0.42, "Ward": "Xã Phong Quảng", "Address": "Quảng Công" }, "geometry": { "type": "Point", "coordinates": [ 107.5253767, 16.6232778, 0.0 ] } },
{ "type": "Feature", "properties": { "Join_Count": 1, "No": 188.0, "Code": "QCO.02", "ID": "QCO.02", "Name": "Trường MN Quảng Công", "X": 16.61896, "Y": 107.532026, "T10_2020": 0.85, "T10_2022": "không ngập", "T11_2023": 0.62, "Note": "Vết tại trụ cổng bên phải", "VL2020": 2020.0, "VL2022": 2022.0, "VL2023": "2023", "Delta1": 0.0, "Delta2": 0.23, "Ward": "Xã Phong Quảng", "Address": "Quảng Công" }, "geometry": { "type": "Point", "coordinates": [ 107.532026, 16.61896, 0.0 ] } },
{ "type": "Feature", "properties": { "Join_Count": 1, "No": 189.0, "Code": "QCO.03", "ID": "QCO.03", "Name": "Trường THPT Tố Hữu", "X": 16.61387, "Y": 107.5417, "T10_2020": 0.86, "T10_2022": "không ngập", "T11_2023": 0.55, "Note": "Vết tường rào bên trái, sát cổng trụ đường mới nâng", "VL2020": 2020.0, "VL2022": 2022.0, "VL2023": "2023", "Delta1": 0.0, "Delta2": 0.31, "Ward": "Xã Phong Quảng", "Address": "Quảng Công" }, "geometry": { "type": "Point", "coordinates": [ 107.5417, 16.61387, 0.0 ] } },
{ "type": "Feature", "properties": { "Join_Count": 1, "No": 190.0, "Code": "QCO.04", "ID": "QCO.04", "Name": "Chợ Cồn Gai", "X": 16.607463, "Y": 107.548964, "T10_2020": 1.16, "T10_2022": "0.47", "T11_2023": 0.65, "Note": "Vết tại tường ngoài cổng chính chợ", "VL2020": 2020.0, "VL2022": 2022.0, "VL2023": "2023", "Delta1": 0.69, "Delta2": 0.51, "Ward": "Xã Phong Quảng", "Address": "Quảng Công" }, "geometry": { "type": "Point", "coordinates": [ 107.548964, 16.607463, 0.0 ] } },
{ "type": "Feature", "properties": { "Join_Count": 1, "No": 191.0, "Code": "QCO.05", "ID": "QCO.05", "Name": "Trường Tiểu học số 2 Quảng Công", "X": 16.60615, "Y": 107.55641, "T10_2020": 0.75, "T10_2022": "không ngập", "T11_2023": 0.47, "Note": "Vết tại trụ cổng bên phải, đường nâng", "VL2020": 2020.0, "VL2022": 2022.0, "VL2023": "2023", "Delta1": 0.0, "Delta2": 0.28, "Ward": "Xã Phong Quảng", "Address": "Quảng Công" }, "geometry": { "type": "Point", "coordinates": [ 107.55641, 16.60615, 0.0 ] } },
{ "type": "Feature", "properties": { "Join_Count": 1, "No": 192.0, "Code": "VIE2.05", "ID": "VIE2.05", "Name": "UBND phường Hương Vân", "X": 16.509444, "Y": 107.44, "T10_2020": 0.0, "T10_2022": "không ngập", "T11_2023": 0.0, "Note": "Vết trên tháp, Tiểu học H.Vân 0,35", "VL2020": 2020.0, "VL2022": 2022.0, "VL2023": "2023", "Delta1": 0.0, "Delta2": 0.0, "Ward": "Phường Hương Trà", "Address": "Hương Vân" }, "geometry": { "type": "Point", "coordinates": [ 107.44, 16.509444, 0.0 ] } },
{ "type": "Feature", "properties": { "Join_Count": 1, "No": 193.0, "Code": "NN.01", "ID": "NN.01", "Name": "Trường MN Hương Vân, Sơn Công", "X": 16.512269, "Y": 107.447376, "T10_2020": 0.0, "T10_2022": "+8.42", "T11_2023": 0.0, "Note": "Vết trên tháp Sơn Công, đường ngập sâu hơn 2 mét", "VL2020": 2020.0, "VL2022": 2022.0, "VL2023": "2023", "Delta1": 0.0, "Delta2": 0.0, "Ward": "Phường Hương Trà", "Address": "Hương Vân" }, "geometry": { "type": "Point", "coordinates": [ 107.447376, 16.512269, 0.0 ] } },
{ "type": "Feature", "properties": { "Join_Count": 1, "No": 194.0, "Code": "HĐ.02", "ID": "HĐ.02", "Name": "Tháp báo lũ Lai Thành", "X": 16.522236, "Y": 107.444639, "T10_2020": 0.0, "T10_2022": "Chưa lên đến tháp", "T11_2023": 0.0, "Note": "Vết trên tháp Lai Thành", "VL2020": 2020.0, "VL2022": 2022.0, "VL2023": "2023", "Delta1": 0.0, "Delta2": 0.3, "Ward": "Phường Hương Trà", "Address": "Hương Vân" }, "geometry": { "type": "Point", "coordinates": [ 107.444639, 16.522236, 0.0 ] } },
{ "type": "Feature", "properties": { "Join_Count": 1, "No": 195.0, "Code": "THA.01", "ID": "THA.01", "Name": "UBND phường Tứ Hạ", "X": 16.521882, "Y": 107.480071, "T10_2020": 0.0, "T10_2022": "0.00", "T11_2023": 0.0, "Note": "0", "VL2020": 2020.0, "VL2022": 2022.0, "VL2023": "2023", "Delta1": 0.0, "Delta2": 0.0, "Ward": "Phường Hương Trà", "Address": "Tứ Hạ" }, "geometry": { "type": "Point", "coordinates": [ 107.480071, 16.521882, 0.0 ] } },
{ "type": "Feature", "properties": { "Join_Count": 1, "No": 196.0, "Code": "THA.02", "ID": "THA.02", "Name": "Trường Tiểu học số 2 Tứ Hạ", "X": 16.519339, "Y": 107.479297, "T10_2020": 0.0, "T10_2022": "0.00", "T11_2023": 0.0, "Note": "0", "VL2020": 2020.0, "VL2022": 2022.0, "VL2023": "2023", "Delta1": 0.0, "Delta2": 0.0, "Ward": "Phường Hương Trà", "Address": "Tứ Hạ" }, "geometry": { "type": "Point", "coordinates": [ 107.479297, 16.519339, 0.0 ] } },
{ "type": "Feature", "properties": { "Join_Count": 1, "No": 197.0, "Code": "THA.03", "ID": "THA.03", "Name": "16 Định Bộ Lĩnh", "X": 16.524741, "Y": 107.479664, "T10_2020": 0.35, "T10_2022": "0.30", "T11_2023": 0.2, "Note": "Vết tại tường nhà dọc đường", "VL2020": 2020.0, "VL2022": 2022.0, "VL2023": "2023", "Delta1": 0.05, "Delta2": 0.15, "Ward": "Phường Hương Trà", "Address": "Tứ Hạ" }, "geometry": { "type": "Point", "coordinates": [ 107.479664, 16.524741, 0.0 ] } },
{ "type": "Feature", "properties": { "Join_Count": 1, "No": 198.0, "Code": "THA.04", "ID": "THA.04", "Name": "Trường THCS Hà Thế Hạnh", "X": 16.532835, "Y": 107.469258, "T10_2020": 1.0, "T10_2022": "0.80", "T11_2023": 0.9, "Note": "Vết tại Nhà bảo vệ", "VL2020": 2020.0, "VL2022": 2022.0, "VL2023": "2023", "Delta1": 0.2, "Delta2": 0.1, "Ward": "Phường Hương Trà", "Address": "Tứ Hạ" }, "geometry": { "type": "Point", "coordinates": [ 107.469258, 16.532835, 0.0 ] } },
{ "type": "Feature", "properties": { "Join_Count": 1, "No": 199.0, "Code": "THA.05", "ID": "THA.05", "Name": "Trạm Y Tế Tứ Hạ (02 Võ Bá Hạp)", "X": 16.535523, "Y": 107.46723, "T10_2020": 1.15, "T10_2022": "1.02", "T11_2023": 1.1, "Note": "Vết tại Trụ cổng chính", "VL2020": 2020.0, "VL2022": 2022.0, "VL2023": "2023", "Delta1": 0.13, "Delta2": 0.05, "Ward": "Phường Hương Trà", "Address": "Tứ Hạ" }, "geometry": { "type": "Point", "coordinates": [ 107.46723, 16.535523, 0.0 ] } },
{ "type": "Feature", "properties": { "Join_Count": 1, "No": 200.0, "Code": "HĐ.04", "ID": "HĐ.04", "Name": "Tháp cảnh báo lũ", "X": 16.542024, "Y": 107.464716, "T10_2020": 6.33, "T10_2022": "6.10", "T11_2023": 6.05, "Note": "Vết trên tháp", "VL2020": 2020.0, "VL2022": 2022.0, "VL2023": "2023", "Delta1": 0.23, "Delta2": 0.28, "Ward": "Phường Hương Trà", "Address": "Tứ Hạ" }, "geometry": { "type": "Point", "coordinates": [ 107.464716, 16.542024, 0.0 ] } },
{ "type": "Feature", "properties": { "Join_Count": 1, "No": 201.0, "Code": "THA.06", "ID": "THA.06", "Name": "Trường TH số 1 Tứ Hạ", "X": 16.541209, "Y": 107.464247, "T10_2020": 1.09, "T10_2022": "0.88", "T11_2023": 0.98, "Note": "Vết tại Tường nhà dạy học (gần cầu thang)", "VL2020": 2020.0, "VL2022": 2022.0, "VL2023": "2023", "Delta1": 0.21, "Delta2": 0.11, "Ward": "Phường Hương Trà", "Address": "Tứ Hạ" }, "geometry": { "type": "Point", "coordinates": [ 107.464247, 16.541209, 0.0 ] } },
{ "type": "Feature", "properties": { "Join_Count": 1, "No": 202.0, "Code": "THA.07", "ID": "THA.07", "Name": "Nhà bà Hồ Thị Cầm, Phú Ốc", "X": 16.536509, "Y": 107.460687, "T10_2020": 1.44, "T10_2022": "1.18", "T11_2023": 1.3, "Note": "Vết tại trụ điện dối diện cách nhà 50m", "VL2020": 2020.0, "VL2022": 2022.0, "VL2023": "2023", "Delta1": 0.26, "Delta2": 0.14, "Ward": "Phường Hương Trà", "Address": "Tứ Hạ" }, "geometry": { "type": "Point", "coordinates": [ 107.460687, 16.536509, 0.0 ] } },
{ "type": "Feature", "properties": { "Join_Count": 1, "No": 203.0, "Code": "THA.08", "ID": "THA.08", "Name": "Trường MN Tứ Hạ", "X": 16.540068, "Y": 107.461973, "T10_2020": 0.7, "T10_2022": "0.45", "T11_2023": 0.47, "Note": "Vết tường hành lang; năm 2023 vết tại tường rào bên trái cổng chính", "VL2020": 2020.0, "VL2022": 2022.0, "VL2023": "2023", "Delta1": 0.25, "Delta2": 0.23, "Ward": "Phường Hương Trà", "Address": "Tứ Hạ" }, "geometry": { "type": "Point", "coordinates": [ 107.461973, 16.540068, 0.0 ] } },
{ "type": "Feature", "properties": { "Join_Count": 1, "No": 204.0, "Code": "HVA.01", "ID": "HVA.01", "Name": "Trường THCS Hồ Văn Tứ", "X": 16.516048, "Y": 107.491009, "T10_2020": 0.91, "T10_2022": "0.80", "T11_2023": 0.86, "Note": "Vết lưu tại hành lang ngoài dãy phòng GV bên trái trường", "VL2020": 2020.0, "VL2022": 2022.0, "VL2023": "2023", "Delta1": 0.11, "Delta2": 0.05, "Ward": "Phường Hương Trà", "Address": "Hương Văn" }, "geometry": { "type": "Point", "coordinates": [ 107.491009, 16.516048, 0.0 ] } },
{ "type": "Feature", "properties": { "Join_Count": 1, "No": 205.0, "Code": "HVA.02", "ID": "HVA.02", "Name": "Trường MN Hương Văn", "X": 16.517446, "Y": 107.490213, "T10_2020": 0.57, "T10_2022": "0.43", "T11_2023": 0.45, "Note": "Vết tại trụ cổng chính bên phải,", "VL2020": 2020.0, "VL2022": 2022.0, "VL2023": "2023", "Delta1": 0.14, "Delta2": 0.12, "Ward": "Phường Hương Trà", "Address": "Hương Văn" }, "geometry": { "type": "Point", "coordinates": [ 107.490213, 16.517446, 0.0 ] } },
{ "type": "Feature", "properties": { "Join_Count": 1, "No": 206.0, "Code": "HVA.03", "ID": "HVA.03", "Name": "Nhà văn hóa TDP Giáp Tư", "X": 16.520855, "Y": 107.493109, "T10_2020": 0.0, "T10_2022": "-", "T11_2023": 0.95, "Note": "Vết lưu ở tường bên phải NVH đo từ nền sân", "VL2020": 0.0, "VL2022": 2022.0, "VL2023": "2023", "Delta1": 0.0, "Delta2": 0.0, "Ward": "Phường Hương Trà", "Address": "Hương Văn" }, "geometry": { "type": "Point", "coordinates": [ 107.493109, 16.520855, 0.0 ] } },
{ "type": "Feature", "properties": { "Join_Count": 1, "No": 207.0, "Code": "HXU.01", "ID": "HXU.01", "Name": "UBND phường Hương Xuân", "X": 16.506777, "Y": 107.50814, "T10_2020": 0.42, "T10_2022": "0.28", "T11_2023": 0.3, "Note": "Vết tại trụ nhà làm việc bên phải", "VL2020": 2020.0, "VL2022": 2022.0, "VL2023": "2023", "Delta1": 0.14, "Delta2": 0.12, "Ward": "Phường Kim Trà", "Address": "Hương Xuân" }, "geometry": { "type": "Point", "coordinates": [ 107.50814, 16.506777, 0.0 ] } },
{ "type": "Feature", "properties": { "Join_Count": 1, "No": 208.0, "Code": "HXU.02", "ID": "HXU.02", "Name": "103 Nguyễn Hữu Thọ", "X": 16.515124, "Y": 107.511401, "T10_2020": 0.61, "T10_2022": "0.50", "T11_2023": 0.53, "Note": "Vết tường ngoài nhà bên phải", "VL2020": 2020.0, "VL2022": 2022.0, "VL2023": "2023", "Delta1": 0.11, "Delta2": 0.08, "Ward": "Phường Kim Trà", "Address": "Hương Xuân" }, "geometry": { "type": "Point", "coordinates": [ 107.511401, 16.515124, 0.0 ] } },
{ "type": "Feature", "properties": { "Join_Count": 1, "No": 209.0, "Code": "HXU.03", "ID": "HXU.03", "Name": "Trường MN Hương Xuân", "X": 16.524448, "Y": 107.509604, "T10_2020": 0.73, "T10_2022": "0.35", "T11_2023": 0.4, "Note": "Vết tường rào bên trái, đo từ nền", "VL2020": 2020.0, "VL2022": 2022.0, "VL2023": "2023", "Delta1": 0.38, "Delta2": 0.33, "Ward": "Phường Kim Trà", "Address": "Hương Xuân" }, "geometry": { "type": "Point", "coordinates": [ 107.509604, 16.524448, 0.0 ] } },
{ "type": "Feature", "properties": { "Join_Count": 1, "No": 210.0, "Code": "HXU.04", "ID": "HXU.04", "Name": "Chợ Phù Hương Xuân (ngã 3 đường Bùi Điền và Trần Văn Trung)", "X": 16.519063, "Y": 107.509784, "T10_2020": 0.0, "T10_2022": "0.63", "T11_2023": 0.65, "Note": "Vết lưu tại trụ bên phải; năm 2023 vào nền chợ 5cm", "VL2020": 0.0, "VL2022": 2022.0, "VL2023": "2023", "Delta1": 0.0, "Delta2": 0.0, "Ward": "Phường Kim Trà", "Address": "Hương Xuân" }, "geometry": { "type": "Point", "coordinates": [ 107.509784, 16.519063, 0.0 ] } },
{ "type": "Feature", "properties": { "Join_Count": 1, "No": 211.0, "Code": "HXU.05", "ID": "HXU.05", "Name": "Tháp báo lũ KHCN", "X": 16.517821, "Y": 107.502046, "T10_2020": 0.0, "T10_2022": "-", "T11_2023": 0.4, "Note": "Tháp báo lũ trước mặt HTX Đông Xuân", "VL2020": 0.0, "VL2022": 0.0, "VL2023": "2023", "Delta1": 0.0, "Delta2": 0.0, "Ward": "Phường Kim Trà", "Address": "Hương Xuân" }, "geometry": { "type": "Point", "coordinates": [ 107.502046, 16.517821, 0.0 ] } },
{ "type": "Feature", "properties": { "Join_Count": 1, "No": 212.0, "Code": "HĐ.05", "ID": "HĐ.05", "Name": "Tháp Hương Xuân, TDP 2", "X": 16.532144, "Y": 107.506705, "T10_2020": 4.2, "T10_2022": "4.09", "T11_2023": 3.97, "Note": "Vết trên tháp", "VL2020": 2020.0, "VL2022": 2022.0, "VL2023": "2023", "Delta1": 0.11, "Delta2": 0.23, "Ward": "Phường Kim Trà", "Address": "Hương Xuân" }, "geometry": { "type": "Point", "coordinates": [ 107.506705, 16.532144, 0.0 ] } },
{ "type": "Feature", "properties": { "Join_Count": 1, "No": 213.0, "Code": "JICA.02", "ID": "JICA.02", "Name": "Tháp báo lũ  Nam Thanh", "X": 16.524588, "Y": 107.555367, "T10_2020": 2.95, "T10_2022": "2.65", "T11_2023": 0.0, "Note": "Vết trên tháp", "VL2020": 2020.0, "VL2022": 2022.0, "VL2023": "2023", "Delta1": 0.3, "Delta2": 2.95, "Ward": "Phường Kim Trà", "Address": "Hương Toàn" }, "geometry": { "type": "Point", "coordinates": [ 107.555367, 16.524588, 0.0 ] } },
{ "type": "Feature", "properties": { "Join_Count": 1, "No": 214.0, "Code": "HTO.01", "ID": "HTO.01", "Name": "Trường TH số 1 Hương Toàn", "X": 16.52813, "Y": 107.54856, "T10_2020": 1.2, "T10_2022": "1.00", "T11_2023": 1.02, "Note": "Đánh dấu vết tại tường rào", "VL2020": 2020.0, "VL2022": 2022.0, "VL2023": "2023", "Delta1": 0.2, "Delta2": 0.18, "Ward": "Phường Kim Trà", "Address": "Hương Toàn" }, "geometry": { "type": "Point", "coordinates": [ 107.54856, 16.52813, 0.0 ] } },
{ "type": "Feature", "properties": { "Join_Count": 1, "No": 215.0, "Code": "KHCN.10", "ID": "KHCN.10", "Name": "Tháp báo lũ Giáp Đông", "X": 16.5173, "Y": 107.536011, "T10_2020": 3.35, "T10_2022": "2.90", "T11_2023": 2.78, "Note": "Vết trên tháp", "VL2020": 2020.0, "VL2022": 2022.0, "VL2023": "2023", "Delta1": 0.45, "Delta2": 0.57, "Ward": "Phường Kim Trà", "Address": "Hương Toàn" }, "geometry": { "type": "Point", "coordinates": [ 107.536011, 16.5173, 0.0 ] } },
{ "type": "Feature", "properties": { "Join_Count": 1, "No": 216.0, "Code": "VIE2.06", "ID": "VIE2.06", "Name": "Tháp báo lũ Giáp Kiền", "X": 16.517401, "Y": 107.534676, "T10_2020": 3.0, "T10_2022": "2.86", "T11_2023": 2.93, "Note": "Vết trên tháp", "VL2020": 2020.0, "VL2022": 2022.0, "VL2023": "2023", "Delta1": 0.14, "Delta2": 0.07, "Ward": "Phường Kim Trà", "Address": "Hương Toàn" }, "geometry": { "type": "Point", "coordinates": [ 107.534676, 16.517401, 0.0 ] } },
{ "type": "Feature", "properties": { "Join_Count": 1, "No": 217.0, "Code": "HTO.02", "ID": "HTO.02", "Name": "Cổng làng Giáp Kiền", "X": 16.517863, "Y": 107.534523, "T10_2020": 1.5, "T10_2022": "1.20", "T11_2023": 1.1, "Note": "Đánh dấu vệt đột điện đối diện", "VL2020": 2020.0, "VL2022": 2022.0, "VL2023": "2023", "Delta1": 0.3, "Delta2": 0.4, "Ward": "Phường Kim Trà", "Address": "Hương Toàn" }, "geometry": { "type": "Point", "coordinates": [ 107.534523, 16.517863, 0.0 ] } },
{ "type": "Feature", "properties": { "Join_Count": 1, "No": 218.0, "Code": "HTO.03", "ID": "HTO.03", "Name": "Trường Tiểu học số 2 Hương Toàn", "X": 16.514061, "Y": 107.534898, "T10_2020": 0.8, "T10_2022": "-", "T11_2023": 0.65, "Note": "Vết tại trụ bên phải cổng chính", "VL2020": 2020.0, "VL2022": 0.0, "VL2023": "2023", "Delta1": 0.0, "Delta2": 0.15, "Ward": "Phường Kim Trà", "Address": "Hương Toàn" }, "geometry": { "type": "Point", "coordinates": [ 107.534898, 16.514061, 0.0 ] } },
{ "type": "Feature", "properties": { "Join_Count": 1, "No": 219.0, "Code": "SMHTO.01", "ID": "SMHTO.01", "Name": "Cổng làng Giáp Trung", "X": 16.512833, "Y": 107.53648, "T10_2020": 1.0, "T10_2022": "-", "T11_2023": 0.9, "Note": "Vết trên cổng trụ bên phải", "VL2020": 2020.0, "VL2022": 0.0, "VL2023": "2023", "Delta1": 0.0, "Delta2": 0.1, "Ward": "Phường Kim Trà", "Address": "Hương Toàn" }, "geometry": { "type": "Point", "coordinates": [ 107.53648, 16.512833, 0.0 ] } },
{ "type": "Feature", "properties": { "Join_Count": 1, "No": 220.0, "Code": "HĐ.07", "ID": "HĐ.07", "Name": "Tháp báo lũ Cổ Lão", "X": 16.517962, "Y": 107.527727, "T10_2020": 3.5, "T10_2022": "3.40", "T11_2023": 3.25, "Note": "Đánh dấu vết cột điện đối diện do tháp báo lũ bị rào chắn không tiếp cận được (+1,70m)", "VL2020": 2020.0, "VL2022": 2022.0, "VL2023": "2023", "Delta1": 0.1, "Delta2": 0.25, "Ward": "Phường Kim Trà", "Address": "Hương Toàn" }, "geometry": { "type": "Point", "coordinates": [ 107.527727, 16.517962, 0.0 ] } },
{ "type": "Feature", "properties": { "Join_Count": 1, "No": 221.0, "Code": "HCU.01", "ID": "HCU.01", "Name": "Nhà Lê Thị Thế, Cổng làng La Chữ", "X": 16.493814, "Y": 107.53148, "T10_2020": 0.6, "T10_2022": "0.60", "T11_2023": 0.55, "Note": "Đánh dấu vết tại cột điện bên cạnh cổng làng", "VL2020": 2020.0, "VL2022": 2022.0, "VL2023": "2023", "Delta1": 0.0, "Delta2": 0.05, "Ward": "Phường Kim Trà", "Address": "Hương Chữ" }, "geometry": { "type": "Point", "coordinates": [ 107.53148, 16.493814, 0.0 ] } },
{ "type": "Feature", "properties": { "Join_Count": 1, "No": 222.0, "Code": "HCU.02", "ID": "HCU.02", "Name": "Trường MN Hương Chữ", "X": 16.487097, "Y": 107.522438, "T10_2020": 0.46, "T10_2022": "0.40", "T11_2023": 0.49, "Note": "Gắng bản tại tường rào bên phải cổng", "VL2020": 2020.0, "VL2022": 2022.0, "VL2023": "2023", "Delta1": 0.06, "Delta2": -0.03, "Ward": "Phường Kim Trà", "Address": "Hương Chữ" }, "geometry": { "type": "Point", "coordinates": [ 107.522438, 16.487097, 0.0 ] } },
{ "type": "Feature", "properties": { "Join_Count": 1, "No": 223.0, "Code": "HCU.03", "ID": "HCU.03", "Name": "Trạm bơm Hương Chữ", "X": 16.49007, "Y": 107.51678, "T10_2020": 0.7, "T10_2022": "0.50", "T11_2023": 0.6, "Note": "Gắng bảng tại tường trạm bơm", "VL2020": 2020.0, "VL2022": 2022.0, "VL2023": "2023", "Delta1": 0.2, "Delta2": 0.1, "Ward": "Phường Kim Trà", "Address": "Hương Chữ" }, "geometry": { "type": "Point", "coordinates": [ 107.51678, 16.49007, 0.0 ] } },
{ "type": "Feature", "properties": { "Join_Count": 1, "No": 224.0, "Code": "HCU.04", "ID": "HCU.04", "Name": "Trạm bơm Phường Thượng, đường Kha Vạn Cân", "X": 16.49431, "Y": 107.51382, "T10_2020": 0.8, "T10_2022": "0.80", "T11_2023": 0.85, "Note": "Đánh dấu vết tại trạm bơm Phường Thượng", "VL2020": 2020.0, "VL2022": 2022.0, "VL2023": "2023", "Delta1": 0.0, "Delta2": -0.05, "Ward": "Phường Kim Trà", "Address": "Hương Chữ" }, "geometry": { "type": "Point", "coordinates": [ 107.51382, 16.49431, 0.0 ] } },
{ "type": "Feature", "properties": { "Join_Count": 1, "No": 225.0, "Code": "HCU.05", "ID": "HCU.05", "Name": "Trường Tiểu học số 01 Hương Chữ", "X": 16.490742, "Y": 107.519923, "T10_2020": 0.0, "T10_2022": "0.00", "T11_2023": 0.5, "Note": "Đường trước cổng trường ngập 0,15m; Đánh dấu gắn bảng tại tường rào bên trái trường ngập 0,50m)", "VL2020": 2020.0, "VL2022": 2022.0, "VL2023": "2023", "Delta1": 0.0, "Delta2": -0.5, "Ward": "Phường Kim Trà", "Address": "Hương Chữ" }, "geometry": { "type": "Point", "coordinates": [ 107.519923, 16.490742, 0.0 ] } },
{ "type": "Feature", "properties": { "Join_Count": 1, "No": 226.0, "Code": "HCU.06", "ID": "HCU.06", "Name": "Trường THPT Đặng Huy Trứ", "X": 16.496471, "Y": 107.528827, "T10_2020": 0.9, "T10_2022": "0.70", "T11_2023": 0.85, "Note": "Vết tại trụ điện dối diện tường rào", "VL2020": 2020.0, "VL2022": 2022.0, "VL2023": "2023", "Delta1": 0.2, "Delta2": 0.05, "Ward": "Phường Kim Trà", "Address": "Hương Chữ" }, "geometry": { "type": "Point", "coordinates": [ 107.528827, 16.496471, 0.0 ] } },
{ "type": "Feature", "properties": { "Join_Count": 1, "No": 227.0, "Code": "286", "ID": "HT286", "Name": "Đền Bong", "X": 16.432828, "Y": 107.651091, "T10_2020": 0.8, "T10_2022": "0.60", "T11_2023": 0.7, "Note": null, "VL2020": 2020.0, "VL2022": 2022.0, "VL2023": "2023", "Delta1": 0.2, "Delta2": 0.1, "Ward": "Phường Thanh Thủy", "Address": "Thôn 11, Thủy Phương" }, "geometry": { "type": "Point", "coordinates": [ 107.651091, 16.432828, 0.0 ] } },
{ "type": "Feature", "properties": { "Join_Count": 1, "No": 228.0, "Code": "285", "ID": "HT285", "Name": "Cổng chào thôn Lợi Nông", "X": 16.444684, "Y": 107.65261, "T10_2020": 0.6, "T10_2022": "0.50", "T11_2023": 0.6, "Note": null, "VL2020": 2020.0, "VL2022": 2022.0, "VL2023": "2023", "Delta1": 0.1, "Delta2": 0.0, "Ward": "Phường Hương Thủy", "Address": "Thôn Lợi Nông,  Thủy Châu" }, "geometry": { "type": "Point", "coordinates": [ 107.65261, 16.444684, 0.0 ] } },